Name,City,Country,Latitude,Longitude,Airport ID,IATA,ICAO
Goroka Airport,Goroka,Papua New Guinea,-6.0816898345900015,145.391998291,1,GKA,AYGA
Madang Airport,Madang,Papua New Guinea,-5.20707988739,145.789001465,2,MAG,AYMD
Mount Hagen Kagamuga Airport,Mount Hagen,Papua New Guinea,-5.826789855957031,144.29600524902344,3,HGU,AYMH
Nadzab Airport,Nadzab,Papua New Guinea,-6.569803,146.725977,4,LAE,AYNZ
Port Moresby Jacksons International Airport,Port Moresby,Papua New Guinea,-9.44338035583496,147.22000122070312,5,POM,AYPY
Wewak International Airport,Wewak,Papua New Guinea,-3.5838301181800003,143.66900634799998,6,WWK,AYWK
Narsarsuaq Airport,Narssarssuaq,Greenland,61.1604995728,-45.4259986877,7,UAK,BGBW
Godthaab / Nuuk Airport,Godthaab,Greenland,64.19090271,-51.678100585900005,8,GOH,BGGH
Kangerlussuaq Airport,Sondrestrom,Greenland,67.0122218992,-50.7116031647,9,SFJ,BGSF
Thule Air Base,Thule,Greenland,76.5311965942,-68.70320129390001,10,THU,BGTL
Akureyri Airport,Akureyri,Iceland,65.66000366210939,-18.07270050048828,11,AEY,BIAR
Egilsstaðir Airport,Egilsstadir,Iceland,65.28330230712889,-14.401399612426758,12,EGS,BIEG
Hornafjörður Airport,Hofn,Iceland,64.295601,-15.2272,13,HFN,BIHN
Húsavík Airport,Husavik,Iceland,65.952301,-17.426001,14,HZK,BIHU
Ísafjörður Airport,Isafjordur,Iceland,66.05809783935547,-23.13529968261719,15,IFJ,BIIS
Keflavik International Airport,Keflavik,Iceland,63.985000610352,-22.605600357056,16,KEF,BIKF
Patreksfjörður Airport,Patreksfjordur,Iceland,65.555801,-23.965,17,PFJ,BIPA
Reykjavik Airport,Reykjavik,Iceland,64.1299972534,-21.9405994415,18,RKV,BIRK
Siglufjörður Airport,Siglufjordur,Iceland,66.133301,-18.9167,19,SIJ,BISI
Vestmannaeyjar Airport,Vestmannaeyjar,Iceland,63.42430114746094,-20.27890014648437,20,VEY,BIVM
Sault Ste Marie Airport,Sault Sainte Marie,Canada,46.48500061035156,-84.5093994140625,21,YAM,CYAM
Winnipeg / St. Andrews Airport,Winnipeg,Canada,50.0564002991,-97.0325012207,22,\N,CYAV
Halifax / CFB Shearwater Heliport,Halifax,Canada,44.639702,-63.499401,23,\N,CYAW
St. Anthony Airport,St. Anthony,Canada,51.391899108900006,-56.083099365200006,24,YAY,CYAY
Tofino / Long Beach Airport,Tofino,Canada,49.079833,-125.775583,25,YAZ,CYAZ
Kugaaruk Airport,Pelly Bay,Canada,68.534401,-89.808098,26,YBB,CYBB
Baie Comeau Airport,Baie Comeau,Canada,49.13249969482422,-68.20439910888672,27,YBC,CYBC
CFB Bagotville,Bagotville,Canada,48.33060073852539,-70.99639892578125,28,YBG,CYBG
Baker Lake Airport,Baker Lake,Canada,64.29889678960001,-96.077796936,29,YBK,CYBK
Campbell River Airport,Campbell River,Canada,49.95080184936523,-125.27100372314452,30,YBL,CYBL
Brandon Municipal Airport,Brandon,Canada,49.91,-99.951897,31,YBR,CYBR
Cambridge Bay Airport,Cambridge Bay,Canada,69.1081008911,-105.138000488,32,YCB,CYCB
Nanaimo Airport,Nanaimo,Canada,49.0549702249,-123.869862556,33,YCD,CYCD
Castlegar/West Kootenay Regional Airport,Castlegar,Canada,49.2963981628,-117.632003784,34,YCG,CYCG
Miramichi Airport,Chatham,Canada,47.007801,-65.449203,35,YCH,CYCH
Charlo Airport,Charlo,Canada,47.990799,-66.330299,36,YCL,CYCL
Kugluktuk Airport,Coppermine,Canada,67.816704,-115.143997,37,YCO,CYCO
Coronation Airport,Coronation,Canada,52.0750007629,-111.444999695,38,YCT,CYCT
Chilliwack Airport,Chilliwack,Canada,49.1528015137,-121.939002991,39,YCW,CYCW
Clyde River Airport,Clyde River,Canada,70.4860992432,-68.5167007446,40,YCY,CYCY
Coral Harbour Airport,Coral Harbour,Canada,64.1932983398,-83.3593978882,41,YZS,CYZS
Dawson City Airport,Dawson,Canada,64.04309844970703,-139.12800598144528,42,YDA,CYDA
Burwash Airport,Burwash,Canada,61.37110137939453,-139.04100036621094,43,YDB,CYDB
Princeton Airport,Princeton,Canada,49.4681015015,-120.511001587,44,\N,CYDC
Deer Lake Airport,Deer Lake,Canada,49.21080017089844,-57.39139938354492,45,YDF,CYDF
Dease Lake Airport,Dease Lake,Canada,58.4221992493,-130.031997681,46,YDL,CYDL
Dauphin Barker Airport,Dauphin,Canada,51.10079956054688,-100.052001953125,47,YDN,CYDN
Dawson Creek Airport,Dawson Creek,Canada,55.7422981262207,-120.18299865722656,48,YDQ,CYDQ
Edmonton International Airport,Edmonton,Canada,53.3097000122,-113.580001831,49,YEG,CYEG
Arviat Airport,Eskimo Point,Canada,61.0942001343,-94.0708007812,50,YEK,CYEK
Estevan Airport,Estevan,Canada,49.210300445600005,-102.966003418,51,YEN,CYEN
Edson Airport,Edson,Canada,53.5788993835,-116.464996338,52,YET,CYET
Eureka Airport,Eureka,Canada,79.9946975708,-85.814201355,53,YEU,CYEU
Inuvik Mike Zubko Airport,Inuvik,Canada,68.30419921880001,-133.483001709,54,YEV,CYEV
Iqaluit Airport,Iqaluit,Canada,63.756402,-68.555801,55,YFB,CYFB
Fredericton Airport,Fredericton,Canada,45.86890029907226,-66.53720092773439,56,YFC,CYFC
Forestville Airport,Forestville,Canada,48.74610137939453,-69.09719848632811,57,YFE,CYFE
Flin Flon Airport,Flin Flon,Canada,54.6781005859375,-101.68199920654295,58,YFO,CYFO
Fort Resolution Airport,Fort Resolution,Canada,61.1808013916,-113.690002441,59,YFR,CYFR
Fort Simpson Airport,Fort Simpson,Canada,61.76020050048828,-121.23699951171876,60,YFS,CYFS
Kingston Norman Rogers Airport,Kingston,Canada,44.22529983520508,-76.5969009399414,61,YGK,CYGK
La Grande Rivière Airport,La Grande Riviere,Canada,53.62530136108398,-77.7042007446289,62,YGL,CYGL
Gaspé (Michel-Pouliot) Airport,Gaspe,Canada,48.7752990723,-64.4785995483,63,YGP,CYGP
Geraldton Greenstone Regional Airport,Geraldton,Canada,49.77830123901367,-86.93939971923828,64,YGQ,CYGQ
Îles-de-la-Madeleine Airport,Iles De La Madeleine,Canada,47.42470169067383,-61.778099060058594,65,YGR,CYGR
Hudson Bay Airport,Hudson Bay,Canada,52.8166999817,-102.310997009,66,YHB,CYHB
Dryden Regional Airport,Dryden,Canada,49.831699,-92.744202,67,YHD,CYHD
Ulukhaktok Holman Airport,Holman Island,Canada,70.76280212402344,-117.80599975585938,68,YHI,CYHI
Gjoa Haven Airport,Gjoa Haven,Canada,68.635597229,-95.8497009277,69,YHK,CYHK
John C. Munro Hamilton International Airport,Hamilton,Canada,43.1735992432,-79.93499755859999,70,YHM,CYHM
Montréal / Saint-Hubert Airport,Montreal,Canada,45.5175018311,-73.4169006348,71,YHU,CYHU
Hay River / Merlyn Carter Airport,Hay River,Canada,60.8396987915,-115.782997131,72,YHY,CYHY
Halifax / Stanfield International Airport,Halifax,Canada,44.8807983398,-63.508598327600005,73,YHZ,CYHZ
Atikokan Municipal Airport,Atikokan,Canada,48.7738990784,-91.6386032104,74,YIB,CYIB
Pond Inlet Airport,Pond Inlet,Canada,72.6832962036,-77.9666976929,75,YIO,CYIO
St Jean Airport,St. Jean,Canada,45.29439926147461,-73.28109741210938,76,YJN,CYJN
Stephenville Airport,Stephenville,Canada,48.5442008972168,-58.54999923706055,77,YJT,CYJT
Kamloops Airport,Kamloops,Canada,50.7022018433,-120.444000244,78,YKA,CYKA
Waterloo Airport,Waterloo,Canada,43.4608001709,-80.3786010742,79,YKF,CYKF
Schefferville Airport,Schefferville,Canada,54.80530166625977,-66.8052978515625,80,YKL,CYKL
Kindersley Airport,Kindersley,Canada,51.5175018311,-109.180999756,81,YKY,CYKY
Buttonville Municipal Airport,Toronto,Canada,43.86220169067383,-79.37000274658203,82,YKZ,CYKZ
Chapleau Airport,Chapleau,Canada,47.81999969482422,-83.3467025756836,83,YLD,CYLD
Meadow Lake Airport,Meadow Lake,Canada,54.12530136108398,-108.52300262451172,84,YLJ,CYLJ
Lloydminster Airport,Lloydminster,Canada,53.30920028686523,-110.072998046875,85,YLL,CYLL
Alert Airport,Alert,Canada,82.51779937740001,-62.2806015015,86,YLT,CYLT
Kelowna International Airport,Kelowna,Canada,49.9561004639,-119.377998352,87,YLW,CYLW
Mayo Airport,Mayo,Canada,63.61640167236328,-135.86799621582028,88,YMA,CYMA
Moose Jaw Air Vice Marshal C. M. McEwen Airport,Moose Jaw,Canada,50.330299377441406,-105.55899810791016,89,YMJ,CYMJ
Fort McMurray Airport,Fort Mcmurray,Canada,56.653301239,-111.222000122,90,YMM,CYMM
Moosonee Airport,Moosonee,Canada,51.29109954833984,-80.60780334472656,91,YMO,CYMO
Maniwaki Airport,Maniwaki,Canada,46.272800445600005,-75.9906005859,92,YMW,CYMW
Montreal International (Mirabel) Airport,Montreal,Canada,45.679501,-74.038696,93,YMX,CYMX
Natashquan Airport,Natashquan,Canada,50.18999862670898,-61.78919982910156,94,YNA,CYNA
Ottawa / Gatineau Airport,Gatineau,Canada,45.5217018127,-75.5635986328,95,YND,CYND
Matagami Airport,Matagami,Canada,49.76169967651367,-77.80280303955078,96,YNM,CYNM
Old Crow Airport,Old Crow,Canada,67.57060241699219,-139.83900451660156,97,YOC,CYOC
CFB Cold Lake,Cold Lake,Canada,54.40499877929688,-110.27899932861328,98,YOD,CYOD
High Level Airport,High Level,Canada,58.62139892578125,-117.16500091552734,99,YOJ,CYOJ
Ottawa Macdonald-Cartier International Airport,Ottawa,Canada,45.3224983215332,-75.66919708251953,100,YOW,CYOW
Prince Albert Glass Field,Prince Albert,Canada,53.2141990662,-105.672996521,101,YPA,CYPA
Peace River Airport,Peace River,Canada,56.226898,-117.446999,102,YPE,CYPE
Southport Airport,Portage-la-prairie,Canada,49.903099,-98.273817,103,YPG,CYPG
Pitt Meadows Airport,Pitt Meadows,Canada,49.21609878540039,-122.70999908447266,104,\N,CYPK
Pickle Lake Airport,Pickle Lake,Canada,51.4463996887207,-90.21420288085938,105,YPL,CYPL
Port Menier Airport,Port Menier,Canada,49.83639907836914,-64.28859710693361,106,YPN,CYPN
Peterborough Airport,Peterborough,Canada,44.22999954223633,-78.36329650878906,107,YPQ,CYPQ
Prince Rupert Airport,Prince Pupert,Canada,54.2860984802,-130.445007324,108,YPR,CYPR
Fort Chipewyan Airport,Fort Chipewyan,Canada,58.7672004699707,-111.11699676513672,109,YPY,CYPY
Muskoka Airport,Muskoka,Canada,44.974700927734375,-79.30329895019531,110,YQA,CYQA
Quebec Jean Lesage International Airport,Quebec,Canada,46.7911,-71.393303,111,YQB,CYQB
Red Deer Regional Airport,Red Deer Industrial,Canada,52.18220138549805,-113.8939971923828,112,YQF,CYQF
Windsor Airport,Windsor,Canada,42.27560043334961,-82.95559692382812,113,YQG,CYQG
Watson Lake Airport,Watson Lake,Canada,60.11640167236328,-128.82200622558594,114,YQH,CYQH
Kenora Airport,Kenora,Canada,49.78829956054688,-94.36309814453124,115,YQK,CYQK
Lethbridge County Airport,Lethbridge,Canada,49.6302986145,-112.800003052,116,YQL,CYQL
Greater Moncton International Airport,Moncton,Canada,46.11220169067383,-64.67859649658203,117,YQM,CYQM
Comox Airport,Comox,Canada,49.71080017089844,-124.88700103759766,119,YQQ,CYQQ
Regina International Airport,Regina,Canada,50.43190002441406,-104.66600036621094,120,YQR,CYQR
Thunder Bay Airport,Thunder Bay,Canada,48.37189865112305,-89.32389831542969,121,YQT,CYQT
Grande Prairie Airport,Grande Prairie,Canada,55.1796989441,-118.885002136,122,YQU,CYQU
Yorkton Municipal Airport,Yorkton,Canada,51.26470184326172,-102.46199798583984,123,YQV,CYQV
North Battleford Airport,North Battleford,Canada,52.76919937133789,-108.24400329589844,124,YQW,CYQW
Gander International Airport,Gander,Canada,48.9369010925293,-54.56809997558594,125,YQX,CYQX
Sydney / J.A. Douglas McCurdy Airport,Sydney,Canada,46.1614,-60.047798,126,YQY,CYQY
Quesnel Airport,Quesnel,Canada,53.026100158691406,-122.51000213623048,127,YQZ,CYQZ
Resolute Bay Airport,Resolute,Canada,74.71690368649999,-94.9693984985,128,YRB,CYRB
Rivière-du-Loup Airport,Riviere Du Loup,Canada,47.76440048217773,-69.58470153808594,129,YRI,CYRI
Roberval Airport,Roberval,Canada,48.52000045776367,-72.2656021118164,130,YRJ,CYRJ
Rocky Mountain House Airport,Rocky Mountain House,Canada,52.4296989441,-114.903999329,131,YRM,CYRM
Rankin Inlet Airport,Rankin Inlet,Canada,62.811401367200006,-92.1157989502,132,YRT,CYRT
Sudbury Airport,Sudbury,Canada,46.625,-80.79889678955078,133,YSB,CYSB
Sherbrooke Airport,Sherbrooke,Canada,45.4385986328125,-71.69139862060547,134,YSC,CYSC
Saint John Airport,St. John,Canada,45.31610107421875,-65.89029693603516,135,YSJ,CYSJ
Fort Smith Airport,Fort Smith,Canada,60.020301818847656,-111.96199798583984,136,YSM,CYSM
Nanisivik Airport,Nanisivik,Canada,72.982201,-84.613602,137,YSR,CYSR
Summerside Airport,Summerside,Canada,46.44060134887695,-63.83359909057617,138,YSU,CYSU
Sachs Harbour (David Nasogaluak Jr. Saaryuaq) Airport,Sachs Harbour,Canada,71.9938964844,-125.242996216,139,YSY,CYSY
Cape Dorset Airport,Cape Dorset,Canada,64.2300033569,-76.5267028809,140,YTE,CYTE
Thompson Airport,Thompson,Canada,55.80110168457031,-97.86419677734376,141,YTH,CYTH
CFB Trenton,Trenton,Canada,44.118900299072266,-77.5280990600586,142,YTR,CYTR
Timmins/Victor M. Power,Timmins,Canada,48.5696983337,-81.376701355,143,YTS,CYTS
Billy Bishop Toronto City Centre Airport,Toronto,Canada,43.627499,-79.396202,144,YTZ,CYTZ
Tuktoyaktuk Airport,Tuktoyaktuk,Canada,69.43329620361328,-133.0260009765625,145,YUB,CYUB
Montreal / Pierre Elliott Trudeau International Airport,Montreal,Canada,45.4706001282,-73.7407989502,146,YUL,CYUL
Repulse Bay Airport,Repulse Bay,Canada,66.5214004517,-86.22470092770003,147,YUT,CYUT
Hall Beach Airport,Hall Beach,Canada,68.77610015869999,-81.2425,148,YUX,CYUX
Rouyn Noranda Airport,Rouyn,Canada,48.20610046386719,-78.83560180664062,149,YUY,CYUY
La Ronge Airport,La Ronge,Canada,55.1514015198,-105.262001038,150,YVC,CYVC
Vermilion Airport,Vermillion,Canada,53.3558006287,-110.823997498,151,YVG,CYVG
Qikiqtarjuaq Airport,Broughton Island,Canada,67.5457992554,-64.03140258789999,152,YVM,CYVM
Val-d'Or Airport,Val D'or,Canada,48.0532989502,-77.7827987671,153,YVO,CYVO
Kuujjuaq Airport,Quujjuaq,Canada,58.09609985351562,-68.42690277099611,154,YVP,CYVP
Norman Wells Airport,Norman Wells,Canada,65.28160095214844,-126.7979965209961,155,YVQ,CYVQ
Vancouver International Airport,Vancouver,Canada,49.193901062,-123.183998108,156,YVR,CYVR
Buffalo Narrows Airport,Buffalo Narrows,Canada,55.8418998718,-108.417999268,157,YVT,CYVT
Wiarton Airport,Wiarton,Canada,44.7458,-81.107201,158,YVV,CYVV
Petawawa Airport,Petawawa,Canada,45.95220184326172,-77.31919860839844,159,YWA,CYWA
Winnipeg / James Armstrong Richardson International Airport,Winnipeg,Canada,49.9099998474,-97.2398986816,160,YWG,CYWG
Wabush Airport,Wabush,Canada,52.92190170288086,-66.86440277099611,161,YWK,CYWK
Williams Lake Airport,Williams Lake,Canada,52.1831016541,-122.054000854,162,YWL,CYWL
Wrigley Airport,Wrigley,Canada,63.20940017700195,-123.43699645996094,163,YWY,CYWY
Cranbrook/Canadian Rockies International Airport,Cranbrook,Canada,49.610801696777,-115.78199768066,164,YXC,CYXC
Edmonton City Centre (Blatchford Field) Airport,Edmonton,Canada,53.5724983215,-113.521003723,165,YXD,CYXD
Saskatoon John G. Diefenbaker International Airport,Saskatoon,Canada,52.17079925537109,-106.6999969482422,166,YXE,CYXE
Medicine Hat Airport,Medicine Hat,Canada,50.01890182495117,-110.72100067138672,167,YXH,CYXH
Fort St John Airport,Fort Saint John,Canada,56.23809814453125,-120.73999786376952,168,YXJ,CYXJ
Sioux Lookout Airport,Sioux Lookout,Canada,50.11389923095703,-91.9052963256836,169,YXL,CYXL
Pangnirtung Airport,Pangnirtung,Canada,66.1449966431,-65.71360015869999,170,YXP,CYXP
Earlton (Timiskaming Regional) Airport,Earlton,Canada,47.6974006546,-79.84734535220001,171,YXR,CYXR
Prince George Airport,Prince George,Canada,53.8894004822,-122.679000854,172,YXS,CYXS
Northwest Regional Airport Terrace-Kitimat,Terrace,Canada,54.468498,-128.576009,173,YXT,CYXT
London Airport,London,Canada,43.035599,-81.1539,174,YXU,CYXU
Abbotsford Airport,Abbotsford,Canada,49.02529907226562,-122.36100006103516,175,YXX,CYXX
Whitehorse / Erik Nielsen International Airport,Whitehorse,Canada,60.7095985413,-135.067001343,176,YXY,CYXY
North Bay Jack Garland Airport,North Bay,Canada,46.363602,-79.422798,177,YYB,CYYB
Calgary International Airport,Calgary,Canada,51.113899231000005,-114.019996643,178,YYC,CYYC
Smithers Airport,Smithers,Canada,54.82469940185547,-127.18299865722656,179,YYD,CYYD
Fort Nelson Airport,Fort Nelson,Canada,58.8363990784,-122.597000122,180,YYE,CYYE
Penticton Airport,Penticton,Canada,49.46310043334961,-119.60199737548828,181,YYF,CYYF
Charlottetown Airport,Charlottetown,Canada,46.290000915527344,-63.12110137939453,182,YYG,CYYG
Taloyoak Airport,Spence Bay,Canada,69.5466995239,-93.5766983032,183,YYH,CYYH
Victoria International Airport,Victoria,Canada,48.646900177,-123.426002502,184,YYJ,CYYJ
Lynn Lake Airport,Lynn Lake,Canada,56.86389923095703,-101.07599639892578,185,YYL,CYYL
Swift Current Airport,Swift Current,Canada,50.2919006348,-107.691001892,186,YYN,CYYN
Churchill Airport,Churchill,Canada,58.73920059204102,-94.06500244140624,187,YYQ,CYYQ
Goose Bay Airport,Goose Bay,Canada,53.3191986084,-60.425800323500006,188,YYR,CYYR
St. John's International Airport,St. John's,Canada,47.618598938000005,-52.7518997192,189,YYT,CYYT
Kapuskasing Airport,Kapuskasing,Canada,49.41389846801758,-82.46749877929688,190,YYU,CYYU
Armstrong Airport,Armstrong,Canada,50.29029846191406,-88.90969848632812,191,YYW,CYYW
Mont Joli Airport,Mont Joli,Canada,48.60860061645508,-68.20809936523439,192,YYY,CYYY
Lester B. Pearson International Airport,Toronto,Canada,43.6772003174,-79.63059997559999,193,YYZ,CYYZ
Downsview Airport,Toronto,Canada,43.74250030517578,-79.4655990600586,194,YZD,CYZD
Gore Bay Manitoulin Airport,Gore Bay,Canada,45.88529968261719,-82.56780242919922,195,YZE,CYZE
Yellowknife Airport,Yellowknife,Canada,62.46279907226562,-114.44000244140624,196,YZF,CYZF
Slave Lake Airport,Slave Lake,Canada,55.2930984497,-114.777000427,197,YZH,CYZH
Sandspit Airport,Sandspit,Canada,53.25429916379999,-131.813995361,198,YZP,CYZP
Chris Hadfield Airport,Sarnia,Canada,42.9994010925293,-82.30889892578125,199,YZR,CYZR
Port Hardy Airport,Port Hardy,Canada,50.68059921264648,-127.36699676513672,200,YZT,CYZT
Whitecourt Airport,Whitecourt,Canada,54.14390182495117,-115.78700256347656,201,YZU,CYZU
Sept-Îles Airport,Sept-iles,Canada,50.22330093383789,-66.26560211181639,202,YZV,CYZV
Teslin Airport,Teslin,Canada,60.17279815673828,-132.74299621582028,203,YZW,CYZW
CFB Greenwood,Greenwood,Canada,44.98440170288086,-64.91690063476561,204,YZX,CYZX
Faro Airport,Faro,Canada,62.20750045776367,-133.37600708007812,205,ZFA,CZFA
Fort Mcpherson Airport,Fort Mcpherson,Canada,67.40750122070311,-134.86099243164062,206,ZFM,CZFM
Blida Airport,Blida,Algeria,36.50360107421875,2.814169883728028,207,QLD,DAAB
Bou Saada Airport,Bou Saada,Algeria,35.33250045776367,4.206389904022217,208,BUJ,DAAD
Soummam Airport,Bejaja,Algeria,36.712001800500005,5.0699200630200005,209,BJA,DAAE
Houari Boumediene Airport,Algier,Algeria,36.69100189208984,3.215409994125366,210,ALG,DAAG
Djanet Inedbirene Airport,Djanet,Algeria,24.292801,9.45244,211,DJG,DAAJ
Boufarik Airport,Boufarik,Algeria,36.545799,2.87611,212,\N,DAAK
Reggane Airport,Reggan,Algeria,26.7101,0.285647,213,\N,DAAN
Illizi Takhamalt Airport,Illizi,Algeria,26.7234992981,8.62265014648,214,VVZ,DAAP
Ain Oussera Airport,Ain Oussera,Algeria,35.52539825439453,2.8787100315093994,215,\N,DAAQ
Aguenar – Hadj Bey Akhamok Airport,Tamanrasset,Algeria,22.8115005493,5.45107984543,216,TMR,DAAT
Jijel Ferhat Abbas Airport,Jijel,Algeria,36.7951011658,5.873610019680001,217,GJL,DAAV
Mecheria Airport,Mecheria,Algeria,33.535900116,-0.242353007197,218,MZW,DAAY
Relizane Airport,Relizane,Algeria,35.752201,0.626272,219,\N,DAAZ
Rabah Bitat Airport,Annaba,Algeria,36.822201,7.809174,220,AAE,DABB
Mohamed Boudiaf International Airport,Constantine,Algeria,36.2760009765625,6.620389938354492,221,CZL,DABC
Cheikh Larbi Tébessi Airport,Tebessa,Algeria,35.4315986633,8.120719909670001,222,TEE,DABS
Hassi R'Mel Airport,Tilrempt,Algeria,32.93040084838867,3.311539888381958,224,HRM,DAFH
Bou Chekif Airport,Tiaret,Algeria,35.3410987854,1.4631500244100002,225,TID,DAOB
Bou Sfer Airport,Bou Sfer,Algeria,35.73540115356445,-0.8053889870643616,226,\N,DAOE
Tindouf Airport,Tindouf,Algeria,27.7003993988,-8.167099952700001,227,TIN,DAOF
Ech Cheliff Airport,Ech-cheliff,Algeria,36.212699890100005,1.33176994324,228,CFK,DAOI
Tafaraoui Airport,Oran,Algeria,35.54240036010742,-0.5322780013084412,229,TAF,DAOL
Zenata – Messali El Hadj Airport,Tlemcen,Algeria,35.0167007446,-1.45000004768,230,TLM,DAON
Es Senia Airport,Oran,Algeria,35.6239013672,-0.6211829781529999,231,ORN,DAOO
Sidi Bel Abbes Airport,Sidi Bel Abbes,Algeria,35.1717987061,-0.593275010586,232,BFW,DAOS
Ghriss Airport,Ghriss,Algeria,35.207698822021484,0.1471419930458068,233,MUW,DAOV
Touat Cheikh Sidi Mohamed Belkebir Airport,Adrar,Algeria,27.83760070800781,-0.1864140033721924,234,AZR,DAUA
Biskra Airport,Biskra,Algeria,34.7933006287,5.73823022842,235,BSK,DAUB
El Golea Airport,El Golea,Algeria,30.5713005065918,2.8595900535583496,236,ELG,DAUE
Noumérat - Moufdi Zakaria Airport,Ghardaia,Algeria,32.38410186767578,3.794110059738159,237,GHA,DAUG
Oued Irara Airport,Hassi Messaoud,Algeria,31.673000335700003,6.140439987180001,238,HME,DAUH
In Salah Airport,In Salah,Algeria,27.2509994507,2.51202011108,239,INZ,DAUI
Touggourt Sidi Madhi Airport,Touggourt,Algeria,33.067798614501946,6.088669776916504,240,TGR,DAUK
Laghouat Airport,Laghouat,Algeria,33.7644004822,2.92833995819,241,LOO,DAUL
Timimoun Airport,Timimoun,Algeria,29.2371006012,0.276033014059,242,TMX,DAUT
Ain el Beida Airport,Ouargla,Algeria,31.917200088500977,5.412779808044434,243,OGX,DAUU
In Aménas Airport,Zarzaitine,Algeria,28.0515,9.64291,244,IAM,DAUZ
Cadjehoun Airport,Cotonou,Benin,6.357230186462402,2.384350061416626,245,COO,DBBB
Ouagadougou Airport,Ouagadougou,Burkina Faso,12.3532,-1.51242,246,OUA,DFFD
Bobo Dioulasso Airport,Bobo-dioulasso,Burkina Faso,11.160099983215332,-4.33096981048584,247,BOY,DFOO
Kotoka International Airport,Accra,Ghana,5.605189800262451,-0.1667860001325607,248,ACC,DGAA
Tamale Airport,Tamale,Ghana,9.55718994140625,-0.8632140159606934,249,TML,DGLE
Wa Airport,Wa,Ghana,10.0826997756958,-2.507689952850342,250,\N,DGLW
Sunyani Airport,Sunyani,Ghana,7.361830234527588,-2.3287599086761475,251,NYI,DGSN
Takoradi Airport,Takoradi,Ghana,4.896059989929199,-1.7747600078582764,252,TKD,DGTK
Port Bouet Airport,Abidjan,Cote d'Ivoire,5.261390209197998,-3.9262900352478014,253,ABJ,DIAP
Bouaké Airport,Bouake,Cote d'Ivoire,7.738800048828125,-5.073669910430908,254,BYK,DIBK
Daloa Airport,Daloa,Cote d'Ivoire,6.7928099632263175,-6.473189830780028,255,DJO,DIDL
Korhogo Airport,Korhogo,Cote d'Ivoire,9.38718032837,-5.556660175319999,256,HGO,DIKO
Man Airport,Man,Cote d'Ivoire,7.272069931030272,-7.58735990524292,257,MJC,DIMN
San Pedro Airport,San Pedro,Cote d'Ivoire,4.746719837188722,-6.660820007324219,258,SPY,DISP
Yamoussoukro Airport,Yamoussoukro,Cote d'Ivoire,6.9031701088,-5.36558008194,259,ASK,DIYO
Nnamdi Azikiwe International Airport,Abuja,Nigeria,9.006790161132812,7.263169765472412,260,ABV,DNAA
Akure Airport,Akure,Nigeria,7.246739864349365,5.3010101318359375,261,AKR,DNAK
Benin Airport,Benin,Nigeria,6.3169798851013175,5.599500179290772,262,BNI,DNBE
Margaret Ekpo International Airport,Calabar,Nigeria,4.976019859313965,8.347200393676758,263,CBQ,DNCA
Akanu Ibiam International Airport,Enugu,Nigeria,6.474269866943359,7.561960220336914,264,ENU,DNEN
Gusau Airport,Gusau,Nigeria,12.1717,6.696110000000001,265,\N,DNGU
Ibadan Airport,Ibadan,Nigeria,7.362460136413574,3.97832989692688,266,IBA,DNIB
Ilorin International Airport,Ilorin,Nigeria,8.440210342407228,4.493919849395752,267,ILR,DNIL
Yakubu Gowon Airport,Jos,Nigeria,9.639829635620115,8.869050025939941,268,JOS,DNJO
Kaduna Airport,Kaduna,Nigeria,10.696000099182127,7.320109844207764,269,KAD,DNKA
Mallam Aminu International Airport,Kano,Nigeria,12.0476,8.52462,270,KAN,DNKN
Maiduguri International Airport,Maiduguri,Nigeria,11.855299949645994,13.080900192260742,271,MIU,DNMA
Makurdi Airport,Makurdi,Nigeria,7.703880000000001,8.61394,272,MDI,DNMK
Murtala Muhammed International Airport,Lagos,Nigeria,6.5773701667785645,3.321160078048706,273,LOS,DNMM
Minna Airport,Minna,Nigeria,9.652170181274414,6.462259769439697,274,MXJ,DNMN
Port Harcourt International Airport,Port Hartcourt,Nigeria,5.0154900550842285,6.94959020614624,275,PHC,DNPO
Sadiq Abubakar III International Airport,Sokoto,Nigeria,12.916299819946287,5.207190036773682,276,SKO,DNSO
Yola Airport,Yola,Nigeria,9.257550239562988,12.430399894714355,277,YOL,DNYO
Zaria Airport,Zaria,Nigeria,11.1302,7.685810000000001,278,ZAR,DNZA
Maradi Airport,Maradi,Niger,13.5024995803833,7.1267499923706055,279,MFQ,DRRM
Diori Hamani International Airport,Niamey,Niger,13.4815,2.18361,280,NIM,DRRN
Tahoua Airport,Tahoua,Niger,14.875699996948242,5.265359878540039,281,THZ,DRRT
Mano Dayak International Airport,Agadez,Niger,16.965999603271484,8.000109672546388,282,AJY,DRZA
Dirkou Airport,Dirkou,Niger,18.968700408935547,12.86870002746582,283,\N,DRZD
Diffa Airport,Diffa,Niger,13.372900009155272,12.626700401306152,284,\N,DRZF
Zinder Airport,Zinder,Niger,13.779000282287598,8.983759880065918,285,ZND,DRZR
Monastir Habib Bourguiba International Airport,Monastir,Tunisia,35.75809860229492,10.75469970703125,286,MIR,DTMB
Tunis Carthage International Airport,Tunis,Tunisia,36.85100173950195,10.22719955444336,287,TUN,DTTA
Sidi Ahmed Air Base,Bizerte,Tunisia,37.245398,9.79145,288,\N,DTTB
Remada Air Base,Remada,Tunisia,32.306198120117195,10.382100105285645,289,\N,DTTD
Gafsa Ksar International Airport,Gafsa,Tunisia,34.42200088500977,8.822500228881836,290,GAF,DTTF
Gabès Matmata International Airport,Gabes,Tunisia,33.87689971923828,10.103300094604492,291,GAE,DTTG
Borj El Amri Airport,Bordj El Amri,Tunisia,36.72129821777344,9.94314956665039,292,\N,DTTI
Djerba Zarzis International Airport,Djerba,Tunisia,33.875,10.775500297546388,293,DJE,DTTJ
El Borma Airport,El Borma,Tunisia,31.70429992675781,9.254619598388672,294,EBM,DTTR
Sfax Thyna International Airport,Sfax,Tunisia,34.71799850463867,10.690999984741213,295,SFA,DTTX
Tozeur Nefta International Airport,Tozeur,Tunisia,33.939701080322266,8.110560417175293,296,TOE,DTTZ
Niamtougou International Airport,Niatougou,Togo,9.767330169677734,1.0912499427795408,297,LRL,DXNG
Lomé-Tokoin Airport,Lome,Togo,6.165609836578369,1.2545100450515747,298,LFW,DXXX
Antwerp International Airport (Deurne),Antwerp,Belgium,51.1893997192,4.46027994156,299,ANR,EBAW
Beauvechain Air Base,Beauvechain,Belgium,50.75859832763672,4.768330097198486,300,\N,EBBE
Kleine Brogel Air Base,Kleine Brogel,Belgium,51.168301,5.47,301,\N,EBBL
Brussels Airport,Brussels,Belgium,50.9014015198,4.48443984985,302,BRU,EBBR
Jehonville Air Base,Bertrix,Belgium,49.8917007446289,5.223889827728272,303,\N,EBBX
Brussels South Charleroi Airport,Charleroi,Belgium,50.459202000000005,4.45382,304,CRL,EBCI
Chièvres Air Base,Chievres,Belgium,50.57580184936523,3.8310000896453857,305,\N,EBCV
Koksijde Air Base,Koksijde,Belgium,51.09030151367188,2.652780055999756,306,\N,EBFN
Florennes Air Base,Florennes,Belgium,50.2433013916,4.64583015442,307,\N,EBFS
Wevelgem Airport,Kortrijk-vevelgem,Belgium,50.817199707,3.2047200202900004,308,KJK,EBKT
Liège Airport,Liege,Belgium,50.63740158081055,5.443220138549805,309,LGG,EBLG
Ostend-Bruges International Airport,Ostend,Belgium,51.1988983154,2.8622200489,310,OST,EBOS
Zutendaal Air Base,Zutendaal,Belgium,50.9474983215332,5.590559959411621,311,\N,EBSL
Brustem Airfield Sint Truiden,Sint-truiden,Belgium,50.791901,5.20167,312,\N,EBST
Saint Hubert Air Base,St.-hubert,Belgium,50.034400939941406,5.440810203552246,313,\N,EBSU
Ursel Air Base,Ursel,Belgium,51.14419937133789,3.475559949874878,314,\N,EBUL
Weelde Air Base,Weelde,Belgium,51.394798278808594,4.9601898193359375,315,\N,EBWE
Zoersel (Oostmalle) Airfield,Zoersel,Belgium,51.264702,4.75333,316,OBL,EBZR
Flugplatz Bautzen,Bautzen,Germany,51.193611,14.519722,317,\N,EDAB
Altenburg-Nobitz Airport,Altenburg,Germany,50.981945,12.506389,318,AOC,EDAC
Dessau Airfield,Dessau,Germany,51.831694,12.190962,319,\N,EDAD
Eisenhüttenstadt Airfield,Eisenhuettenstadt,Germany,52.195856,14.58753,320,\N,EDAE
Großenhain Airport,Suhl,Germany,51.30805587768555,13.555556297302244,322,\N,EDAK
Merseburg Airport,Muehlhausen,Germany,51.3630556,11.9408333,323,\N,EDAM
Halle-Oppin Airport,Halle,Germany,51.552223,12.053889,324,\N,EDAQ
Riesa-Göhlis Airport,Riesa,Germany,51.2936096191,13.3561105728,325,IES,EDAU
Rechlin-Lärz Airport,Rechlin-laerz,Germany,53.306388855,12.7522220612,326,REB,EDAX
Strausberg Airport,Strausberg,Germany,52.5805549621582,13.916666984558104,327,\N,EDAY
Schönhagen Airport,Schoenhagen,Germany,52.203609,13.156389,328,QXH,EDAZ
Barth Airport,Barth,Germany,54.338253,12.710515,329,BBH,EDBH
Jena-Schöngleina Airfield,Jena,Germany,50.915279,11.714444,330,\N,EDBJ
Kyritz Airport,Kyritz,Germany,52.91888809204102,12.425277709960938,331,\N,EDBK
"Magdeburg ""City"" Airport",Magdeburg,Germany,52.073612,11.626389,332,ZMG,EDBM
Rothenburg/Görlitz Airport,Rothenburg/ol,Germany,51.36333465576172,14.949999809265137,333,\N,EDBR
Anklam Airfield,Anklam,Germany,53.832779,13.668611,334,\N,EDCA
Cottbus-Drewitz Airport,Cottbus,Germany,51.889442,14.531944,335,CBU,EDCD
Kamenz Airport,Kamenz,Germany,51.29694366455078,14.1274995803833,336,\N,EDCM
Berlin-Schönefeld Airport,Berlin,Germany,52.380001,13.5225,337,SXF,EDDB
Dresden Airport,Dresden,Germany,51.1328010559082,13.767200469970703,338,DRS,EDDC
Erfurt Airport,Erfurt,Germany,50.97980117797852,10.958100318908691,339,ERF,EDDE
Frankfurt am Main Airport,Frankfurt,Germany,50.033333,8.570556,340,FRA,EDDF
Münster Osnabrück Airport,Munster,Germany,52.134601593,7.68483018875,341,FMO,EDDG
Hamburg Airport,Hamburg,Germany,53.630401611328,9.988229751586902,342,HAM,EDDH
Berlin-Tempelhof International Airport,Berlin,Germany,52.47299957275391,13.403900146484377,343,THF,EDDI
Cologne Bonn Airport,Cologne,Germany,50.8658981323,7.1427397728,344,CGN,EDDK
Düsseldorf Airport,Duesseldorf,Germany,51.289501,6.766780000000001,345,DUS,EDDL
Munich Airport,Munich,Germany,48.353802,11.7861,346,MUC,EDDM
Nuremberg Airport,Nuernberg,Germany,49.498699,11.078056,347,NUE,EDDN
Leipzig/Halle Airport,Leipzig,Germany,51.423889,12.236389,348,LEJ,EDDP
Saarbrücken Airport,Saarbruecken,Germany,49.2145996094,7.10950994492,349,SCN,EDDR
Stuttgart Airport,Stuttgart,Germany,48.6898994446,9.22196006775,350,STR,EDDS
Berlin-Tegel Airport,Berlin,Germany,52.5597,13.2877,351,TXL,EDDT
Hannover Airport,Hannover,Germany,52.461101532,9.68507957458,352,HAJ,EDDV
Bremen Airport,Bremen,Germany,53.0475006104,8.78666973114,353,BRE,EDDW
Frankfurt-Egelsbach Airport,Egelsbach,Germany,49.959999,8.645833,354,QEF,EDFE
Frankfurt-Hahn Airport,Hahn,Germany,49.9487,7.263889999999999,355,HHN,EDFH
Mannheim-City Airport,Mannheim,Germany,49.473057,8.514167,356,MHG,EDFM
Allendorf/Eder Airport,Allendorf,Germany,51.03499984741211,8.680832862854004,357,\N,EDFQ
Worms Airport,Worms,Germany,49.606945,8.368333,358,\N,EDFV
Mainz-Finthen Airport,Mainz,Germany,49.967499,8.147222,359,\N,EDFZ
Eisenach-Kindel Airport,Eisenach,Germany,50.991604,10.47973,360,EIB,EDGE
Siegerland Airport,Siegerland,Germany,50.70769882202149,8.082969665527344,361,SGE,EDGS
Hamburg-Finkenwerder Airport,Hamburg,Germany,53.5352783203125,9.835556030273438,362,XFW,EDHI
Kiel-Holtenau Airport,Kiel,Germany,54.37944412231445,10.145277976989746,363,KEL,EDHK
Lübeck Blankensee Airport,Luebeck,Germany,53.805400848400005,10.7192001343,364,LBC,EDHL
Flugplatz Dahlemer Binz,Dahlemer Binz,Germany,50.405555725,6.528889179199999,365,\N,EDKV
Meinerzhagen Airport,Meinerzhagen,Germany,51.09999847412109,7.599999904632567,366,\N,EDKZ
Arnsberg-Menden Airport,Arnsberg,Germany,51.48389053344727,7.8983330726623535,367,\N,EDLA
Essen Mulheim Airport,Essen,Germany,51.40230178833008,6.9373297691345215,368,ESS,EDLE
Bielefeld Airport,Bielefeld,Germany,51.964722,8.544444,369,BFE,EDLI
Mönchengladbach Airport,Moenchengladbach,Germany,51.230278000000006,6.504444,370,MGL,EDLN
Paderborn Lippstadt Airport,Paderborn,Germany,51.6141014099,8.616319656369999,371,PAD,EDLP
Stadtlohn-Vreden Airport,Stadtlohn,Germany,51.99583435058594,6.840556144714356,372,\N,EDLS
Dortmund Airport,Dortmund,Germany,51.51829910279999,7.61223983765,373,DTM,EDLW
Augsburg Airport,Augsburg,Germany,48.425278000000006,10.931667,374,AGB,EDMA
Biberach a.d. Riß Airfield,Biberach,Germany,48.111111,9.762778,375,\N,EDMB
Eggenfelden Airport,Eggenfelden,Germany,48.39611053466797,12.723610877990724,376,\N,EDME
Mindelheim-Mattsies Airfield,Mindelheim,Germany,48.106945,10.525,377,\N,EDMN
Oberpfaffenhofen Airport,Oberpfaffenhofen,Germany,48.081402,11.2831,378,OBF,EDMO
Straubing Airport,Straubing,Germany,48.90083312988281,12.516667366027832,379,RBM,EDMS
Vilshofen Airport,Vilshofen,Germany,48.6349983215332,13.195555686950684,380,\N,EDMV
Leutkirch-Unterzeil Airport,Leutkirch,Germany,47.85889053344727,10.014166831970217,381,\N,EDNL
Friedrichshafen Airport,Friedrichshafen,Germany,47.6712989807,9.511489868160002,382,FDH,EDNY
Schwerin Parchim Airport,Parchim,Germany,53.426998,11.7834,383,SZW,EDOP
Stendal-Borstel Airport,Stendal,Germany,52.62888717651367,11.818611145019531,384,\N,EDOV
Aalen-Heidenheim/Elchingen Airport,Aalen-heidenheim,Germany,48.77777862548828,10.264721870422363,385,\N,EDPA
Bayreuth Airport,Bayreuth,Germany,49.985001,11.64,386,BYU,EDQD
Burg Feuerstein Airport,Burg Feuerstein,Germany,49.794166564940994,11.133610725403,387,URD,EDQE
Hof-Plauen Airport,Hof,Germany,50.288612365722656,11.856389045715332,388,HOQ,EDQM
Haßfurt-Schweinfurt Airport,Hassfurt,Germany,50.0180549621582,10.529443740844728,389,\N,EDQT
Koblenz-Winningen Airfield,Koblenz,Germany,50.325558,7.528611,390,\N,EDRK
Trier-Föhren Airport,Trier,Germany,49.863888,6.7875,391,\N,EDRT
Speyer Airfield,Speyer,Germany,49.304722,8.451389,392,\N,EDRY
Zweibrücken Airport,Zweibruecken,Germany,49.2094,7.40056,393,ZQW,EDRZ
Donaueschingen-Villingen Airport,Donaueschingen,Germany,47.97333145139999,8.52222156525,394,ZQL,EDTD
Freiburg i. Br. Airport,Freiburg,Germany,48.022777557400005,7.832499980930001,395,\N,EDTF
Mengen-Hohentengen Airport,Mengen,Germany,48.05389022827149,9.372777938842772,396,\N,EDTM
Adolf Würth Airport,Schwaebisch Hall,Germany,49.1183319092,9.783888816829998,397,\N,EDTY
Finsterwalde/Schacksdorf Airport,Soest,Germany,51.607498,13.743610999999998,398,\N,EDUS
Braunschweig-Wolfsburg Airport,Braunschweig,Germany,52.319199,10.5561,399,BWE,EDVE
Kassel-Calden Airport,Kassel,Germany,51.417273,9.384967,400,KSF,EDVK
Hildesheim Airport,Hildesheim,Germany,52.18138885498047,9.946389198303224,401,\N,EDVM
Bremerhaven Airport,Bremerhaven,Germany,53.50694300000001,8.572778,402,BRV,EDWB
Emden Airport,Emden,Germany,53.391109,7.2275,403,EME,EDWE
Leer-Papenburg Airport,Leer,Germany,53.27194213867188,7.441667079925537,404,\N,EDWF
Wilhelmshaven-Mariensiel Airport,Wilhelmshaven,Germany,53.502220153808594,8.05222225189209,405,WVN,EDWI
Borkum Airport,Borkum,Germany,53.59639,6.709167,406,BMK,EDWR
Norderney Airport,Norderney,Germany,53.70694351196289,7.230000019073486,407,NRD,EDWY
Flensburg-Schäferhaus Airport,Flensburg,Germany,54.77333450317383,9.378889083862305,408,FLF,EDXF
Rendsburg-Schachtholm Airport,Rendsburg,Germany,54.22000122070313,9.599444389343262,409,\N,EDXR
Westerland Sylt Airport,Westerland,Germany,54.9132003784,8.34047031403,410,GWT,EDXW
Ämari Air Base,Armari Air Force Base,Estonia,59.26029968261719,24.208499908447266,411,\N,EEEI
Kärdla Airport,Kardla,Estonia,58.99079895019531,22.830699920654297,412,KDL,EEKA
Kuressaare Airport,Kuressaare,Estonia,58.22990036010742,22.50950050354004,413,URE,EEKE
Pärnu Airport,Parnu,Estonia,58.41899871826172,24.47279930114746,414,EPU,EEPU
Lennart Meri Tallinn Airport,Tallinn-ulemiste International,Estonia,59.41329956049999,24.8327999115,415,TLL,EETN
Tartu Airport,Tartu,Estonia,58.30749893189999,26.6903991699,416,TAY,EETU
Enontekio Airport,Enontekio,Finland,68.36260223388699,23.424299240112,417,ENF,EFET
Eura Airport,Eura,Finland,61.1161003112793,22.20140075683593,418,\N,EFEU
Halli Airport,Halli,Finland,61.856039,24.786686,419,KEV,EFHA
Helsinki Malmi Airport,Helsinki,Finland,60.25460052490234,25.04280090332031,420,HEM,EFHF
Helsinki Vantaa Airport,Helsinki,Finland,60.317199707031,24.963300704956,421,HEL,EFHK
Hameenkyro Airport,Hameenkyro,Finland,61.68970108032226,23.073699951171875,422,\N,EFHM
Hanko Airport,Hanko,Finland,59.848899841308594,23.08359909057617,423,\N,EFHN
Hyvinkää Airfield,Hyvinkaa,Finland,60.6543998718,24.8810997009,424,HYV,EFHV
Kiikala Airport,Kikala,Finland,60.4625015259,23.6525001526,425,\N,EFIK
Immola Airport,Immola,Finland,61.24919891357422,28.90369987487793,426,\N,EFIM
Kitee Airport,Kitee,Finland,62.1661,30.073601,427,KTQ,EFIT
Ivalo Airport,Ivalo,Finland,68.607299804688,27.405300140381,428,IVL,EFIV
Joensuu Airport,Joensuu,Finland,62.662899017334006,29.607500076294,429,JOE,EFJO
Jyvaskyla Airport,Jyvaskyla,Finland,62.399501800537,25.678300857544,430,JYV,EFJY
Kauhava Airport,Kauhava,Finland,63.127102,23.051399,431,KAU,EFKA
Kemi-Tornio Airport,Kemi,Finland,65.778701782227,24.582099914551,432,KEM,EFKE
Kajaani Airport,Kajaani,Finland,64.285499572754,27.692399978638,433,KAJ,EFKI
Kauhajoki Airport,Kauhajoki,Finland,62.4625015259,22.3931007385,434,KHJ,EFKJ
Kokkola-Pietarsaari Airport,Kruunupyy,Finland,63.721199035645,23.143100738525,435,KOK,EFKK
Kemijarvi Airport,Kemijarvi,Finland,66.712898,27.156799,436,\N,EFKM
Kuusamo Airport,Kuusamo,Finland,65.98760223388699,29.239400863647,437,KAO,EFKS
Kittilä Airport,Kittila,Finland,67.700996398926,24.846799850464,438,KTT,EFKT
Kuopio Airport,Kuopio,Finland,63.007099151611,27.797800064087,439,KUO,EFKU
Lahti Vesivehmaa Airport,Vesivehmaa,Finland,61.144199,25.693501,440,QLF,EFLA
Lappeenranta Airport,Lappeenranta,Finland,61.044601,28.144743,441,LPP,EFLP
Mariehamn Airport,Mariehamn,Finland,60.122200012207,19.898199081421,442,MHQ,EFMA
Menkijarvi Airport,Menkijarvi,Finland,62.94670104980469,23.51889991760254,443,\N,EFME
Mikkeli Airport,Mikkeli,Finland,61.6866,27.201799,444,MIK,EFMI
Nummela Airport,Nummela,Finland,60.3339004517,24.2964000702,445,\N,EFNU
Oulu Airport,Oulu,Finland,64.930099487305,25.354600906372,446,OUL,EFOU
Piikajarvi Airport,Piikajarvi,Finland,61.24560165405274,22.19339942932129,447,\N,EFPI
Pori Airport,Pori,Finland,61.46170043945301,21.799999237061,448,POR,EFPO
Pudasjärvi Airport,Pudasjarvi,Finland,65.4021987915,26.9468994141,449,\N,EFPU
Pyhäsalmi Airport,Pyhasalmi,Finland,63.7318992615,25.9263000488,450,\N,EFPY
Raahe Pattijoki Airport,Pattijoki,Finland,64.6881027222,24.6958007812,451,\N,EFRH
Rantasalmi Airport,Rantasalmi,Finland,62.0654983521,28.3565006256,452,\N,EFRN
Rovaniemi Airport,Rovaniemi,Finland,66.564796447754,25.830400466919,453,RVN,EFRO
Rayskala Airport,Rayskala,Finland,60.74470138549805,24.107799530029297,454,\N,EFRY
Savonlinna Airport,Savonlinna,Finland,61.943099975586,28.945100784302,455,SVL,EFSA
Selanpaa Airport,Selanpaa,Finland,61.06240081787109,26.79890060424805,456,\N,EFSE
Sodankyla Airport,Sodankyla,Finland,67.3949966431,26.6191005707,457,SOT,EFSO
Tampere-Pirkkala Airport,Tampere,Finland,61.414100646973,23.604400634766,458,TMP,EFTP
Teisko Airport,Teisko,Finland,61.7733,24.027,459,\N,EFTS
Turku Airport,Turku,Finland,60.514099121094,22.262800216675,460,TKU,EFTU
Utti Air Base,Utti,Finland,60.89640045165999,26.938400268555004,461,UTI,EFUT
Vaasa Airport,Vaasa,Finland,63.050701141357,21.762199401855,462,VAA,EFVA
Varkaus Airport,Varkaus,Finland,62.171100616455,27.868600845337,463,VRK,EFVR
Ylivieska Airfield,Ylivieska-raudaskyla,Finland,64.0547222,24.7252778,464,YLI,EFYL
Belfast International Airport,Belfast,United Kingdom,54.6575012207,-6.21582984924,465,BFS,EGAA
St Angelo Airport,Enniskillen,United Kingdom,54.39889907836914,-7.651669979095459,466,ENK,EGAB
George Best Belfast City Airport,Belfast,United Kingdom,54.61809921264648,-5.872499942779541,467,BHD,EGAC
City of Derry Airport,Londonderry,United Kingdom,55.04280090332031,-7.161109924316406,468,LDY,EGAE
Birmingham International Airport,Birmingham,United Kingdom,52.4538993835,-1.7480299472799998,469,BHX,EGBB
Coventry Airport,Coventry,United Kingdom,52.3697013855,-1.47971999645,470,CVT,EGBE
Leicester Airport,Leicester,United Kingdom,52.6077995300293,-1.03193998336792,471,\N,EGBG
Gloucestershire Airport,Golouchestershire,United Kingdom,51.89419937133789,-2.1672201156616206,472,GLO,EGBJ
Wolverhampton Halfpenny Green Airport,Halfpenny Green,United Kingdom,52.51750183105469,-2.259439945220948,474,\N,EGBO
Cotswold Airport,Pailton,United Kingdom,51.668095,-2.05694,475,GBA,EGBP
Turweston Airport,Turweston,United Kingdom,52.0407981873,-1.09555995464,476,\N,EGBT
Wellesbourne Mountford Airport,Wellesbourne,United Kingdom,52.19219970703125,-1.6144399642944336,477,\N,EGBW
Manchester Airport,Manchester,United Kingdom,53.35369873046875,-2.2749500274658203,478,MAN,EGCC
Manchester Woodford Airport,Woodfort,United Kingdom,53.3381,-2.14889,479,\N,EGCD
Royal Marines Base Chivenor Airport,Chivenor,United Kingdom,51.08720016479492,-4.150340080261231,480,\N,EGDC
Newquay Cornwall Airport,Newquai,United Kingdom,50.44060134887695,-4.995409965515137,481,NQY,EGHQ
RAF Lyneham,Lyneham,United Kingdom,51.5051,-1.99343,482,LYE,EGDL
MoD Boscombe Down Airport,Boscombe Down,United Kingdom,51.15219879150391,-1.7474100589752195,483,\N,EGDM
RNAS Culdrose,Culdrose,United Kingdom,50.08610153198242,-5.2557101249694815,484,\N,EGDR
MoD St. Athan,St. Athan,United Kingdom,51.4048,-3.43575,485,\N,EGDX
RNAS Yeovilton,Yeovilton,United Kingdom,51.0093994140625,-2.638819932937622,486,YEO,EGDY
Haverfordwest Airport,Haverfordwest,United Kingdom,51.83309936523438,-4.9611101150512695,487,HAW,EGFE
Cardiff International Airport,Cardiff,United Kingdom,51.39670181274414,-3.343329906463623,488,CWL,EGFF
Swansea Airport,Swansea,United Kingdom,51.60530090332031,-4.0678300857543945,489,SWS,EGFH
Bristol Airport,Bristol,United Kingdom,51.382702,-2.71909,490,BRS,EGGD
Liverpool John Lennon Airport,Liverpool,United Kingdom,53.33359909057617,-2.849720001220703,491,LPL,EGGP
London Luton Airport,London,United Kingdom,51.87469863891602,-0.3683330118656158,492,LTN,EGGW
Plymouth City Airport,Plymouth,United Kingdom,50.422798,-4.10583,493,PLH,EGHD
Bournemouth Airport,Bournemouth,United Kingdom,50.77999877929688,-1.8424999713897705,494,BOH,EGHH
Southampton Airport,Southampton,United Kingdom,50.95029830932617,-1.3567999601364136,495,SOU,EGHI
Lasham Airport,Lasham,United Kingdom,51.18719863891602,-1.0334999561309814,496,QLA,EGHL
Alderney Airport,Alderney,Guernsey,49.706104,-2.21472,497,ACI,EGJA
Guernsey Airport,Guernsey,Guernsey,49.43500137329102,-2.601969957351685,498,GCI,EGJB
Jersey Airport,Jersey,Jersey,49.20790100097656,-2.195509910583496,499,JER,EGJJ
Shoreham Airport,Shoreham By Sea,United Kingdom,50.835602,-0.297222,500,ESH,EGKA
London Biggin Hill Airport,Biggin Hill,United Kingdom,51.33079910279999,0.0324999988079,501,BQH,EGKB
London Gatwick Airport,London,United Kingdom,51.148102,-0.190278,502,LGW,EGKK
London City Airport,London,United Kingdom,51.505299,0.0552779999999999,503,LCY,EGLC
Farnborough Airport,Farnborough,United Kingdom,51.2757987976,-0.776332974434,504,FAB,EGLF
Chalgrove Airport,Chalsgrove,United Kingdom,51.67610168457031,-1.0808299779891968,505,\N,EGLJ
Blackbushe Airport,Blackbushe,United Kingdom,51.32389831542969,-0.8475000262260437,506,BBS,EGLK
London Heathrow Airport,London,United Kingdom,51.4706,-0.461941,507,LHR,EGLL
Southend Airport,Southend,United Kingdom,51.5713996887207,0.6955559849739075,508,SEN,EGMC
Lydd Airport,Lydd,United Kingdom,50.95610046386719,0.939167022705078,509,LYX,EGMD
Kent International Airport,Manston,United Kingdom,51.342201,1.34611,510,MSE,EGMH
Brough Airport,Brough,United Kingdom,53.7197,-0.566333,511,\N,EGNB
Carlisle Airport,Carlisle,United Kingdom,54.9375,-2.8091700077056885,512,CAX,EGNC
Retford Gamston Airport,Repton,United Kingdom,53.28060150146485,-0.9513890147209167,513,\N,EGNE
Blackpool International Airport,Blackpool,United Kingdom,53.77170181274414,-3.0286099910736084,514,BLK,EGNH
Humberside Airport,Humberside,United Kingdom,53.57440185546875,-0.350832998752594,515,HUY,EGNJ
Barrow Walney Island Airport,Barrow Island,United Kingdom,54.1286111,-3.2675,516,BWF,EGNL
Leeds Bradford Airport,Leeds,United Kingdom,53.86589813232422,-1.6605700254440308,517,LBA,EGNM
Warton Airport,Warton,United Kingdom,53.745098,-2.88306,518,WRT,EGNO
Hawarden Airport,Hawarden,United Kingdom,53.1781005859375,-2.977780103683472,519,CEG,EGNR
Isle of Man Airport,Isle Of Man,Isle of Man,54.08330154418945,-4.623889923095703,520,IOM,EGNS
Newcastle Airport,Newcastle,United Kingdom,55.03749847412109,-1.6916699409484863,521,NCL,EGNT
Durham Tees Valley Airport,Teesside,United Kingdom,54.50920104980469,-1.4294099807739258,522,MME,EGNV
East Midlands Airport,East Midlands,United Kingdom,52.8311004639,-1.32806003094,523,EMA,EGNX
Llanbedr Airport,Llanbedr,United Kingdom,52.811698913574,-4.1235799789429,524,\N,EGOD
RAF Ternhill,Ternhill,United Kingdom,52.87120056152344,-2.533560037612915,525,\N,EGOE
RAF Shawbury,Shawbury,United Kingdom,52.79819869995117,-2.668040037155152,526,\N,EGOS
RAF Woodvale,Woodvale,United Kingdom,53.5816,-3.05552,528,\N,EGOW
Kirkwall Airport,Kirkwall,United Kingdom,58.957801818847656,-2.9049999713897705,529,KOI,EGPA
Sumburgh Airport,Sumburgh,United Kingdom,59.87889862060547,-1.295560002326965,530,LSI,EGPB
Wick Airport,Wick,United Kingdom,58.45890045166016,-3.09306001663208,531,WIC,EGPC
Aberdeen Dyce Airport,Aberdeen,United Kingdom,57.20190048217773,-2.1977798938751216,532,ABZ,EGPD
Inverness Airport,Inverness,United Kingdom,57.54249954223633,-4.047500133514403,533,INV,EGPE
Glasgow International Airport,Glasgow,United Kingdom,55.8718986511,-4.43306016922,534,GLA,EGPF
Edinburgh Airport,Edinburgh,United Kingdom,55.95000076293945,-3.372499942779541,535,EDI,EGPH
Islay Airport,Islay,United Kingdom,55.68190002441406,-6.256669998168945,536,ILY,EGPI
Glasgow Prestwick Airport,Prestwick,United Kingdom,55.5093994140625,-4.586669921875,537,PIK,EGPK
Benbecula Airport,Benbecula,United Kingdom,57.48109817504883,-7.362780094146728,538,BEB,EGPL
Scatsta Airport,Scatsta,United Kingdom,60.43280029296875,-1.2961100339889526,539,SCS,EGPM
Dundee Airport,Dundee,United Kingdom,56.45249938964844,-3.025830030441284,540,DND,EGPN
Stornoway Airport,Stornoway,United Kingdom,58.215599060058594,-6.3311100006103525,541,SYY,EGPO
Tiree Airport,Tiree,United Kingdom,56.49919891357422,-6.869170188903809,542,TRE,EGPU
RAF Leuchars,Leuchars,United Kingdom,56.37289810180664,-2.8684399127960205,543,ADX,EGQL
RAF Lossiemouth,Lossiemouth,United Kingdom,57.7052001953125,-3.339169979095459,544,LMO,EGQS
Cambridge Airport,Cambridge,United Kingdom,52.205002,0.175,545,CBG,EGSC
Peterborough Business Airport,Peterborough,United Kingdom,52.46810150146485,-0.2511110007762909,546,\N,EGSF
Norwich International Airport,Norwich,United Kingdom,52.675800323500006,1.28278005123,547,NWI,EGSH
London Stansted Airport,London,United Kingdom,51.8849983215,0.234999999404,548,STN,EGSS
North Weald Airport,North Weald,United Kingdom,51.721698761000006,0.154166996479,549,\N,EGSX
Sheffield City Heliport,Fowlmere,United Kingdom,53.394299,-1.38849,550,\N,EGSY
Cranfield Airport,Cranfield,United Kingdom,52.0722007751,-0.616666972637,551,\N,EGTC
Exeter International Airport,Exeter,United Kingdom,50.73440170288086,-3.4138898849487305,552,EXT,EGTE
Bristol Filton Airport,Bristol,United Kingdom,51.5194015503,-2.59083008766,553,FZO,EGTG
Oxford (Kidlington) Airport,Oxford,United Kingdom,51.8368988037,-1.32000005245,554,OXF,EGTK
RAF Benson,Benson,United Kingdom,51.6164016724,-1.09582996368,555,BEX,EGUB
RAF Lakenheath,Lakenheath,United Kingdom,52.4093017578,0.5609999895100001,556,LKZ,EGUL
RAF Mildenhall,Mildenhall,United Kingdom,52.36190032958984,0.4864059984683991,557,MHZ,EGUN
RAF Wattisham,Wattisham,United Kingdom,52.1273002625,0.956264019012,558,\N,EGUW
RAF Wyton,Wyton,United Kingdom,52.3572006226,-0.107832998037,559,QUY,EGUY
RAF Fairford,Fairford,United Kingdom,51.6822013855,-1.7900300025900002,560,FFD,EGVA
RAF Brize Norton,Brize Norton,United Kingdom,51.75,-1.58362,561,BZZ,EGVN
RAF Odiham,Odiham,United Kingdom,51.2341003418,-0.94282501936,562,ODH,EGVO
DCAE Cosford Air Base,Cosford,United Kingdom,52.639999,-2.30558,563,\N,EGWC
RAF Northolt,Northolt,United Kingdom,51.5530014038,-0.418166995049,564,NHT,EGWU
RAF Coningsby,Coningsby,United Kingdom,53.0929985046,-0.166014000773,565,QCY,EGXC
RAF Dishforth,Dishforth,United Kingdom,54.1371994019,-1.42025005817,566,\N,EGXD
Leeming Airport,Leeming,United Kingdom,54.2924,-1.5354,567,\N,EGXE
Leeds East Airport,Church Fenton,United Kingdom,53.834301,-1.1955,568,\N,EGXG
RAF Honington,Honington,United Kingdom,52.34260177612305,0.7729390263557434,569,BEQ,EGXH
RAF Cottesmore,Cottesmore,United Kingdom,52.735699,-0.6487689999999999,570,\N,EGXJ
RAF Scampton,Scampton,United Kingdom,53.307800293,-0.550832986832,571,SQZ,EGXP
RAF Wittering,Wittering,United Kingdom,52.612598,-0.4764529999999999,572,\N,EGXT
RAF Linton-On-Ouse,Linton-on-ouse,United Kingdom,54.0489006042,-1.2527500391,573,HRT,EGXU
RAF Waddington,Waddington,United Kingdom,53.1661987305,-0.5238109827040001,574,WTN,EGXW
RAF Topcliffe,Topcliffe,United Kingdom,54.2055015564,-1.3820899725,575,\N,EGXZ
RAF Cranwell,Cranwell,United Kingdom,53.0303001404,-0.4832420051100001,576,\N,EGYD
RAF Barkston Heath,Barkston Heath,United Kingdom,52.9622001648,-0.561625003815,577,\N,EGYE
RAF Marham,Marham,United Kingdom,52.648395,0.550692,578,KNF,EGYM
Mount Pleasant Airport,Mount Pleasant,Falkland Islands,-51.82279968261719,-58.44720077514648,579,MPN,EGYP
Amsterdam Airport Schiphol,Amsterdam,Netherlands,52.308601,4.76389,580,AMS,EHAM
Budel Airfield Kempen,Weert,Netherlands,51.255299,5.60139,581,\N,EHBD
Maastricht Aachen Airport,Maastricht,Netherlands,50.911701,5.7701400000000005,582,MST,EHBK
Deelen Air Base,Deelen,Netherlands,52.0606,5.87306,583,\N,EHDL
Drachten Airport,Drachten,Netherlands,53.119201660200005,6.12972021103,584,\N,EHDR
Eindhoven Airport,Eindhoven,Netherlands,51.4500999451,5.374529838559999,585,EIN,EHEH
Eelde Airport,Groningen,Netherlands,53.1197013855,6.579440116880001,586,GRQ,EHGG
Gilze Rijen Air Base,Gilze-rijen,Netherlands,51.56740188598633,4.931829929351807,587,GLZ,EHGR
De Kooy Airport,De Kooy,Netherlands,52.92340087890625,4.780620098114014,588,DHR,EHKD
Lelystad Airport,Lelystad,Netherlands,52.4603,5.52722,589,LEY,EHLE
Leeuwarden Air Base,Leeuwarden,Netherlands,53.22859954833984,5.760560035705566,590,LWR,EHLW
Rotterdam The Hague Airport,Rotterdam,Netherlands,51.956902,4.43722,591,RTM,EHRD
Soesterberg Air Base,Soesterberg,Netherlands,52.1273002625,5.27618980408,592,UTC,EHSB
Twente Airport,Enschede,Netherlands,52.275833,6.889167,593,ENS,EHTW
Valkenburg Naval Air Base,Valkenburg,Netherlands,52.1660995483,4.41794013977,594,LID,EHVB
Woensdrecht Air Base,Woensdrecht,Netherlands,51.4491,4.34203,595,WOE,EHWO
Cork Airport,Cork,Ireland,51.84130096435547,-8.491109848022461,596,ORK,EICK
Galway Airport,Galway,Ireland,53.30020141601562,-8.941590309143066,597,GWY,EICM
Dublin Airport,Dublin,Ireland,53.421299,-6.27007,599,DUB,EIDW
Ireland West Knock Airport,Connaught,Ireland,53.9103012084961,-8.818490028381348,600,NOC,EIKN
Kerry Airport,Kerry,Ireland,52.18090057373047,-9.52377986907959,601,KIR,EIKY
Casement Air Base,Casement,Ireland,53.301700592,-6.451330184940001,602,\N,EIME
Shannon Airport,Shannon,Ireland,52.702,-8.92482,603,SNN,EINN
Sligo Airport,Sligo,Ireland,54.280200958252,-8.599209785461401,604,SXL,EISG
Waterford Airport,Waterford,Ireland,52.18719863891602,-7.086959838867188,605,WAT,EIWF
Aarhus Airport,Aarhus,Denmark,56.2999992371,10.619000434899998,607,AAR,EKAH
Billund Airport,Billund,Denmark,55.7402992249,9.15178012848,608,BLL,EKBI
Copenhagen Kastrup Airport,Copenhagen,Denmark,55.617900848389,12.656000137329,609,CPH,EKCH
Esbjerg Airport,Esbjerg,Denmark,55.525902,8.5534,610,EBJ,EKEB
Grønholt Hillerød Airport,Gronholt,Denmark,55.94139862060547,12.382200241088867,611,\N,EKGH
Karup Airport,Karup,Denmark,56.29750061035156,9.124629974365234,612,KRP,EKKA
Læsø Airport,Laeso,Denmark,57.27719879150391,11.000100135803224,613,BYR,EKLS
Lolland Falster Maribo Airport,Maribo,Denmark,54.699299,11.4401,614,MRW,EKMB
Odense Airport,Odense,Denmark,55.47669982910156,10.330900192260742,615,ODE,EKOD
Kruså-Padborg Airport,Krusa-padborg,Denmark,54.87030029296875,9.279009819030762,616,\N,EKPB
Copenhagen Roskilde Airport,Copenhagen,Denmark,55.58560180664063,12.131400108337402,617,RKE,EKRK
Bornholm Airport,Ronne,Denmark,55.06330108642578,14.759599685668944,618,RNN,EKRN
Sønderborg Airport,Soenderborg,Denmark,54.96440124511719,9.791729927062988,619,SGD,EKSB
Skrydstrup Air Base,Skrydstrup,Denmark,55.221048,9.26702,621,SKS,EKSP
Skive Airport,Skive,Denmark,56.55020141601562,9.172980308532717,622,SQW,EKSV
Thisted Airport,Thisted,Denmark,57.06880187988281,8.705220222473145,623,TED,EKTS
Kolding Vamdrup Airfield,Kolding,Denmark,55.436298,9.33092,624,\N,EKVD
Vagar Airport,Vagar,Faroe Islands,62.0635986328125,-7.277219772338867,625,FAE,EKVG
Vesthimmerlands Flyveplads,Vesthimmerland,Denmark,56.846901,9.45861,626,\N,EKVH
Stauning Airport,Stauning,Denmark,55.9901008605957,8.353910446166992,627,STA,EKVJ
Aalborg Airport,Aalborg,Denmark,57.0927589138,9.84924316406,628,AAL,EKYT
Luxembourg-Findel International Airport,Luxemburg,Luxembourg,49.6233333,6.204444400000001,629,LUX,ELLX
Ålesund Airport,Alesund,Norway,62.5625,6.119699954986572,630,AES,ENAL
Andøya Airport,Andoya,Norway,69.292503356934,16.144199371338,631,ANX,ENAN
Alta Airport,Alta,Norway,69.976097106934,23.371700286865,632,ALF,ENAT
Bømoen Airport,Voss,Norway,60.63890075683594,6.501500129699707,633,\N,ENBM
Brønnøysund Airport,Bronnoysund,Norway,65.461097717285,12.217499732971,634,BNN,ENBN
Bodø Airport,Bodo,Norway,67.26920318603516,14.365300178527832,635,BOO,ENBO
Bergen Airport Flesland,Bergen,Norway,60.29339981,5.218140125,636,BGO,ENBR
Båtsfjord Airport,Batsfjord,Norway,70.60050201416,29.691400527954,637,BJF,ENBS
Kristiansand Airport,Kristiansand,Norway,58.204201,8.08537,638,KRS,ENCN
Geilo Airport Dagali,Geilo,Norway,60.41730117797852,8.518349647521973,639,DLD,ENDI
Bardufoss Airport,Bardufoss,Norway,69.055801391602,18.540399551392,640,BDU,ENDU
"Harstad/Narvik Airport, Evenes",Harstad/Narvik,Norway,68.491302490234,16.678100585938,641,EVE,ENEV
Leirin Airport,Fagernes,Norway,61.015598297119,9.2880601882935,642,VDB,ENFG
Florø Airport,Floro,Norway,61.583599090576,5.0247201919556,643,FRO,ENFL
Oslo Lufthavn,Oslo,Norway,60.121,11.0502,644,OSL,ENGM
Haugesund Airport,Haugesund,Norway,59.34529876709001,5.208360195159901,645,HAU,ENHD
Hasvik Airport,Hasvik,Norway,70.486701965332,22.139699935913,646,HAA,ENHK
Kristiansund Airport (Kvernberget),Kristiansund,Norway,63.111801147461,7.824520111083999,647,KSU,ENKB
Kjeller Airport,Kjeller,Norway,59.9692993164,11.0361003876,648,\N,ENKJ
Kirkenes Airport (Høybuktmoen),Kirkenes,Norway,69.725799560547,29.891300201416,649,KKN,ENKR
Lista Airport,Farsund,Norway,58.0994987487793,6.626049995422362,650,FAN,ENLI
Molde Airport,Molde,Norway,62.744701385498,7.262499809265099,651,MOL,ENML
Mosjøen Airport (Kjærstad),Mosjoen,Norway,65.78399658203101,13.214900016785,652,MJF,ENMS
Banak Airport,Lakselv,Norway,70.068801879883,24.973499298096,653,LKL,ENNA
Notodden Airport,Notodden,Norway,59.565701,9.21222,654,NTB,ENNO
Ørland Airport,Orland,Norway,63.69889831542969,9.604000091552734,655,OLA,ENOL
Røros Airport,Roros,Norway,62.57839965820301,11.342300415039,656,RRS,ENRO
"Moss Airport, Rygge",Rygge,Norway,59.378817000000005,10.785439,657,RYG,ENRY
"Svalbard Airport, Longyear",Svalbard,Norway,78.246101379395,15.465600013733,658,LYR,ENSB
Skien Airport,Skien,Norway,59.18500137329102,9.566940307617188,659,SKE,ENSN
Stord Airport,Stord,Norway,59.79190063476562,5.340849876403809,660,SRP,ENSO
Sandnessjøen Airport (Stokka),Sandnessjoen,Norway,65.95680236816399,12.468899726868,662,SSJ,ENST
"Tromsø Airport,",Tromso,Norway,69.68329620361328,18.91889953613281,663,TOS,ENTC
"Sandefjord Airport, Torp",Sandefjord,Norway,59.1866989136,10.258600235,664,TRF,ENTO
Trondheim Airport Værnes,Trondheim,Norway,63.45780179999999,10.9239998,665,TRD,ENVA
Stavanger Airport Sola,Stavanger,Norway,58.876701354,5.637780189500001,666,SVG,ENZV
Babice Airport,Warsaw,Poland,52.26850128173828,20.910999298095703,667,\N,EPBC
Gdańsk Lech Wałęsa Airport,Gdansk,Poland,54.37760162353516,18.46619987487793,668,GDN,EPGD
Kraków John Paul II International Airport,Krakow,Poland,50.077702,19.7848,669,KRK,EPKK
Muchowiec Airport,Katowice,Poland,50.23809814453125,19.03420066833496,670,\N,EPKM
Katowice International Airport,Katowice,Poland,50.4743,19.08,671,KTW,EPKT
Mielec Airport,Mielec,Poland,50.32229995727539,21.462099075317383,673,\N,EPML
Poznań-Ławica Airport,Poznan,Poland,52.4210014343,16.8262996674,674,POZ,EPPO
Rzeszów-Jasionka Airport,Rzeszow,Poland,50.1100006104,22.0189990997,675,RZE,EPRZ
"Szczecin-Goleniów ""Solidarność"" Airport",Szczecin,Poland,53.584701538100006,14.9021997452,676,SZZ,EPSC
Redzikowo Air Base,Slupsk,Poland,54.47890090942383,17.107500076293945,677,OSP,EPSK
Swidwin Military Air Base,Shapaja,Poland,53.790599823,15.8262996674,678,\N,EPSN
Warsaw Chopin Airport,Warsaw,Poland,52.1656990051,20.9671001434,679,WAW,EPWA
Copernicus Wrocław Airport,Wroclaw,Poland,51.10269927979999,16.885799408,680,WRO,EPWR
Zielona Góra-Babimost Airport,Zielona Gora,Poland,52.1385002136,15.7986001968,681,IEG,EPZG
Malmen Air Base,Linkoeping,Sweden,58.40230178833008,15.525699615478516,682,\N,ESCF
Bråvalla Air Base,Norrkoeping,Sweden,58.61090087890625,16.103599548339847,683,\N,ESCK
Uppsala Airport,Uppsala,Sweden,59.89730072021485,17.588600158691403,684,\N,ESCM
Ronneby Airport,Ronneby,Sweden,56.266700744629,15.265000343323,685,RNB,ESDF
Råda Air Base,Rada,Sweden,58.49810028076172,13.053199768066404,686,\N,ESFR
Gothenburg-Landvetter Airport,Gothenborg,Sweden,57.662799835205,12.279800415039,687,GOT,ESGG
Jönköping Airport,Joenkoeping,Sweden,57.75759887695313,14.068699836730955,688,JKG,ESGJ
Falköping Airport,Falkoping,Sweden,58.1697998046875,13.58780002593994,689,\N,ESGK
Lidköping-Hovby Airport,Lidkoping,Sweden,58.4655,13.1744,690,LDK,ESGL
Gothenburg City Airport,Gothenborg,Sweden,57.7747,11.8704,691,GSE,ESGP
Skövde Airport,Skovde,Sweden,58.45640182495117,13.972700119018556,692,KVB,ESGR
Trollhättan-Vänersborg Airport,Trollhattan,Sweden,58.31809997558594,12.345000267028809,693,THN,ESGT
Karlsborg Air Base,Karlsborg,Sweden,58.51380157470703,14.507100105285645,694,\N,ESIA
Såtenäs Air Base,Satenas,Sweden,58.42639923095703,12.714400291442873,695,\N,ESIB
Barkarby Airport,Stockholm,Sweden,59.41447436439999,17.8821372986,696,\N,ESKB
Karlskoga Airport,Karlskoga,Sweden,59.34590148925781,14.49590015411377,697,KSK,ESKK
Mora Airport,Mora,Sweden,60.957901,14.5114,698,MXX,ESKM
Stockholm Skavsta Airport,Stockholm,Sweden,58.78860092163086,16.912200927734375,699,NYO,ESKN
Arvika Airport,Arvika,Sweden,59.6759,12.6394,700,\N,ESKV
Emmaboda Airfield,Emmaboda,Sweden,56.610802,15.6048,701,\N,ESMA
Feringe Airport,Ljungby,Sweden,56.9502983093,13.9216995239,702,\N,ESMG
Kristianstad Airport,Kristianstad,Sweden,55.92169952392578,14.08549976348877,703,KID,ESMK
Landskrona Airport,Landskrona,Sweden,55.94599914550781,12.869999885559082,704,\N,ESML
Oskarshamn Airport,Oskarshamn,Sweden,57.350498,16.497999,705,OSK,ESMO
Anderstorp Airport,Anderstorp,Sweden,57.264198303222656,13.59939956665039,706,\N,ESMP
Kalmar Airport,Kalkmar,Sweden,56.68550109863281,16.287599563598633,707,KLR,ESMQ
Malmö Sturup Airport,Malmoe,Sweden,55.53630536399999,13.3761978149,708,MMX,ESMS
Halmstad Airport,Halmstad,Sweden,56.69110107421875,12.820199966430664,709,HAD,ESMT
Hagshult Air Base,Hagshult,Sweden,57.292198,14.1372,710,\N,ESMV
Växjö Kronoberg Airport,Vaxjo,Sweden,56.92910003662109,14.727999687194824,711,VXO,ESMX
Hallviken Airport,Hallviken,Sweden,63.73830032348633,15.45829963684082,712,\N,ESNA
Hedlanda Airport,Hede,Sweden,62.40890121459999,13.7472000122,713,\N,ESNC
Sveg Airport,Sveg,Sweden,62.04779815673828,14.422900199890137,714,EVG,ESND
Gällivare Airport,Gallivare,Sweden,67.13240051269531,20.814599990844727,715,GEV,ESNG
Hudiksvall Airport,Hudiksvall,Sweden,61.7681007385,17.0806999207,716,HUV,ESNH
Jokkmokk Airport,Jokkmokk,Sweden,66.49620056152344,20.147199630737305,717,\N,ESNJ
Kramfors Sollefteå Airport,Kramfors,Sweden,63.04859924316406,17.76889991760254,718,KRF,ESNK
Lycksele Airport,Lycksele,Sweden,64.54830169677734,18.71619987487793,719,LYC,ESNL
Optand Airport,Optand,Sweden,63.12860107421875,14.802800178527832,720,\N,ESNM
Sundsvall-Härnösand Airport,Sundsvall,Sweden,62.528099060058594,17.443899154663086,721,SDL,ESNN
Örnsköldsvik Airport,Ornskoldsvik,Sweden,63.40829849243164,18.989999771118164,722,OER,ESNO
Piteå Airport,Pitea,Sweden,65.39830017089844,21.260799407958984,723,\N,ESNP
Kiruna Airport,Kiruna,Sweden,67.821998596191,20.336799621582,724,KRN,ESNQ
Orsa Airport,Orsa,Sweden,61.18999862670898,14.712599754333494,725,\N,ESNR
Skellefteå Airport,Skelleftea,Sweden,64.62480163574219,21.07690048217773,726,SFT,ESNS
Sättna Airport,Sattna,Sweden,62.4814,17.002899,727,\N,ESNT
Umeå Airport,Umea,Sweden,63.791801452637,20.282800674438,728,UME,ESNU
Vilhelmina Airport,Vilhelmina,Sweden,64.5791015625,16.833599090576172,729,VHM,ESNV
Arvidsjaur Airport,Arvidsjaur,Sweden,65.59030151367189,19.28190040588379,730,AJR,ESNX
Örebro Airport,Orebro,Sweden,59.22370147705078,15.038000106811523,731,ORB,ESOE
Stockholm Västerås Airport,Vasteras,Sweden,59.58940124511719,16.633600234985348,733,VST,ESOW
Luleå Airport,Lulea,Sweden,65.543800354004,22.121999740601,734,LLA,ESPA
Vidsel Air Base,Vidsel,Sweden,65.87529754638672,20.149900436401367,735,\N,ESPE
Arboga Airport,Arboga,Sweden,59.38660049438477,15.924099922180176,736,\N,ESQO
Stockholm-Arlanda Airport,Stockholm,Sweden,59.651901245117,17.918600082397,737,ARN,ESSA
Stockholm-Bromma Airport,Stockholm,Sweden,59.35440063476562,17.941699981689453,738,BMA,ESSB
Borlange Airport,Borlange,Sweden,60.42200088500977,15.515199661254885,739,BLE,ESSD
Hultsfred Airport,Hultsfred,Sweden,57.525799,15.8233,740,HLF,ESSF
Gävle Sandviken Airport,Gavle,Sweden,60.593299865722656,16.951400756835938,741,GVX,ESSK
Linköping City Airport,Linkoeping,Sweden,58.406200408900006,15.6805000305,742,LPI,ESSL
Norrköping Airport,Norrkoeping,Sweden,58.58629989624024,16.250600814819336,743,NRK,ESSP
Eskilstuna Airport,Eskilstuna,Sweden,59.35110092163086,16.70840072631836,745,EKT,ESSU
Visby Airport,Visby,Sweden,57.662799835205,18.346200942993,746,VBY,ESSV
Kalixfors Airport,Kalixfors,Sweden,67.76480102539061,20.257200241088867,748,\N,ESUK
Spangdahlem Air Base,Spangdahlem,Germany,49.9726982117,6.6925001144400005,750,SPM,ETAD
Ramstein Air Base,Ramstein,Germany,49.4369010925293,7.600279808044434,751,RMS,ETAR
[Duplicate] Giebelstadt Army Air Field,Giebelstadt,Germany,49.6481018066,9.966489791870002,753,GHF,ETEU
Bückeburg Air Base,Brueckeburg,Germany,52.2785,9.08217,754,\N,ETHB
Celle Airport,Celle,Germany,52.59120178222656,10.022100448608398,755,ZCN,ETHC
Rheine Bentlage Air Base,Rheine-brentlange,Germany,52.291199,7.387,756,\N,ETHE
Fritzlar Airport,Fritzlar,Germany,51.1146,9.286,757,FRZ,ETHF
Laupheim Air Base,Laupheim,Germany,48.220299,9.91002,758,\N,ETHL
Mendig Airfield,Mendig,Germany,50.366001,7.31533,759,\N,ETHM
Niederstetten Army Air Base,Niederstetten,Germany,49.391945,9.958889,760,\N,ETHN
Roth Airport,Roth,Germany,49.21749877929688,11.100199699401855,761,\N,ETHR
Fassberg Air Base,Fassberg,Germany,52.919399,10.185827,762,\N,ETHS
Grafenwohr Army Air Field,Grafenwoehr,Germany,49.69869995117188,11.940199851989744,763,\N,ETIC
Hanau Army Air Field,Hanau,Germany,50.169201,8.96159,764,ZNF,ETID
Hohenfels Army Air Field,Hohenfels,Germany,49.21810150146485,11.836099624633787,765,\N,ETIH
Flugplatz Kitzingen,Kitzingen,Germany,49.743099,10.2006,766,KZG,ETIN
Nordholz Naval Airbase,Nordholz,Germany,53.7677001953,8.658499717709999,767,FCN,ETMN
Diepholz Air Base,Diepholz,Germany,52.585556,8.342222,768,\N,ETND
Geilenkirchen Air Base,Geilenkirchen,Germany,50.9608,6.04242,769,GKE,ETNG
Hohn Air Base,Hohn,Germany,54.312199,9.53817,770,\N,ETNH
Jever Air Base,Jever,Germany,53.533501,7.888669999999999,771,\N,ETNJ
Rostock-Laage Airport,Laage,Germany,53.9182014465,12.2783002853,772,RLG,ETNL
Nörvenich Air Base,Noervenich,Germany,50.8312,6.65817,773,\N,ETNN
Schleswig Air Base,Schleswig,Germany,54.459301,9.51633,774,WBG,ETNS
Wittmundhafen Airport,Wittmundhafen,Germany,53.54779815673828,7.667329788208008,775,\N,ETNT
Wunstorf Air Base,Wunstorf,Germany,52.457298,9.42717,777,\N,ETNW
Vilseck Army Air Field,Vilseck,Germany,49.63359832763672,11.767200469970703,778,\N,ETOI
Coleman Army Air Field,Coleman,Germany,49.5635986328125,8.463390350341799,779,\N,ETOR
Wiesbaden Army Airfield,Wiesbaden,Germany,50.04980087280274,8.325400352478027,780,WIE,ETOU
Landsberg Lech Air Base,Landsberg,Germany,48.070599,10.906,781,\N,ETSA
Büchel Air Base,Buechel,Germany,50.1738014221,7.06333017349,782,\N,ETSB
Erding Airport,Erding,Germany,48.32229995727539,11.948699951171877,783,\N,ETSE
Fürstenfeldbruck Air Base,Fuerstenfeldbruck,Germany,48.205555,11.266944,784,FEL,ETSF
Holzdorf Air Base,Holzdorf,Germany,51.767799,13.1677,785,\N,ETSH
Ingolstadt Manching Airport,Ingolstadt,Germany,48.7156982421875,11.534000396728516,786,IGS,ETSI
Lechfeld Air Base,Lechfeld,Germany,48.185504,10.8612,787,\N,ETSL
Neuburg AFB,Neuburg,Germany,48.710999,11.2115,788,\N,ETSN
Gütersloh Air Base,Guetersloh,Germany,51.922798,8.30633,789,GUT,ETUO
Alexander Bay Airport,Alexander Bay,South Africa,-28.575001,16.5333,790,ALJ,FAAB
Aggeneys Airport,Aggeneys,South Africa,-29.28179931640625,18.813899993896484,791,AGZ,FAAG
Brakpan Airport,Brakpan,South Africa,-26.23859977722168,28.30179977416992,792,\N,FABB
Bisho Airport,Bisho,South Africa,-32.897098541300004,27.2791004181,793,BIY,FABE
Bram Fischer International Airport,Bloemfontein,South Africa,-29.0926990509,26.302400589,794,BFN,FABL
Bethlehem Airport,Bethlehem,South Africa,-28.2483997345,28.3360996246,795,\N,FABM
Hendrik Potgieter Airport,Bothaville,South Africa,-27.36680030822754,26.62919998168945,796,\N,FABO
Cape Town International Airport,Cape Town,South Africa,-33.9648017883,18.6016998291,797,CPT,FACT
Calvinia Airport,Calvinia,South Africa,-31.50029945373535,19.72590065002441,798,\N,FACV
King Shaka International Airport,Durban,South Africa,-29.6144444444,31.1197222222,799,DUR,FALE
Ben Schoeman Airport,East London,South Africa,-33.0355987549,27.8258991241,800,ELS,FAEL
Ermelo Airport,Ermelo,South Africa,-26.4955997467041,29.979799270629886,801,\N,FAEO
Ficksburg Sentraoes Airport,Ficksburg,South Africa,-28.82309913635254,27.908899307250977,802,FCB,FAFB
Grand Central Airport,Johannesburg,South Africa,-25.986299514799995,28.1401004791,803,GCJ,FAGC
George Airport,George,South Africa,-34.0056,22.378902,804,GRJ,FAGG
Graaff Reinet Airport,Graaff Reinet,South Africa,-32.19359970092773,24.541400909423828,806,\N,FAGR
Grahamstown Airport,Grahamstown,South Africa,-33.284698486328125,26.49810028076172,807,\N,FAGT
Greytown Airport,Greytown,South Africa,-29.1219997406,30.5867004395,808,\N,FAGY
Harmony Airport,Harmony,South Africa,-28.07869911193848,26.8612003326416,809,\N,FAHA
Harrismith Airport,Harrismith,South Africa,-28.23509979248047,29.10619926452637,810,HRS,FAHR
Hoedspruit Air Force Base Airport,Hoedspruit,South Africa,-24.3686008453,31.048700332600003,811,HDS,FAHS
Gariep Dam Airport,Hendrik Verwoerddam,South Africa,-30.56220054626465,25.52829933166504,812,\N,FAHV
OR Tambo International Airport,Johannesburg,South Africa,-26.1392,28.246,813,JNB,FAOR
P C Pelser Airport,Klerksdorp,South Africa,-26.8710994720459,26.718000411987305,814,KXE,FAKD
Kimberley Airport,Kimberley,South Africa,-28.802799224900003,24.7651996613,815,KIM,FAKM
Krugersdorp Airport,Krugersdorp,South Africa,-26.0808259199,27.7259149551,816,\N,FAKR
Kroonstad Airport,Kroonstad,South Africa,-27.660600662231445,27.31579971313477,817,\N,FAKS
Johan Pienaar Airport,Kuruman,South Africa,-27.45669937133789,23.4113998413086,818,KMH,FAKU
Kleinsee Airport,Kleinsee,South Africa,-29.6884002686,17.093999862700002,819,KLZ,FAKZ
Lanseria Airport,Johannesburg,South Africa,-25.9384994507,27.9260997772,820,HLA,FALA
Lichtenburg Airport,Lichtenburg,South Africa,-26.17569923400879,26.184600830078125,821,\N,FALI
Makhado Air Force Base Airport,Lambertsbaai,South Africa,-23.159900665283203,29.69650077819824,822,\N,FALM
Langebaanweg Airport,Langebaanweg,South Africa,-32.9688987732,18.1602993011,823,SDB,FALW
Ladysmith Airport,Ladysmith,South Africa,-28.5816993713,29.7497005463,824,LAY,FALY
Middelburg Airport,Middelburg,South Africa,-25.68479919433593,29.440200805664062,825,\N,FAMB
Margate Airport,Margate,South Africa,-30.8574008942,30.343000412,827,MGH,FAMG
Marble Hall Airport,Marble Hall,South Africa,-24.98909950256348,29.283100128173828,828,\N,FAMI
Majuba Power Station Airport,Majuba Power Station,South Africa,-27.0792999268,29.7784996033,829,\N,FAMJ
Riverside Airport,Malalane,South Africa,-25.4300003052,31.5767002106,831,LLE,FAMN
Morningside Farm Airport,Musina,South Africa,-25.7045001984,26.9090003967,832,\N,FAMS
Mkuze Airport,Mkuze,South Africa,-27.62610054016113,32.044300079345696,833,MZQ,FAMU
Newcastle Airport,Newcastle,South Africa,-27.7705993652,29.9769001007,834,NCS,FANC
Nylstroom Airfield,Nylstroom,South Africa,-24.68610000610352,28.43490028381348,835,\N,FANY
Overberg Airport,Overberg,South Africa,-34.554901123,20.250699996900003,836,OVG,FAOB
Oudtshoorn Airport,Oudtshoorn,South Africa,-33.6069984436,22.188999176,837,OUH,FAOH
Port Elizabeth Airport,Port Elizabeth,South Africa,-33.984901428200004,25.617300033600003,838,PLZ,FAPE
Plettenberg Bay Airport,Plettenberg Bay,South Africa,-34.0881601675,23.3287234306,839,PBZ,FAPG
Hendrik Van Eck Airport,Phalaborwa,South Africa,-23.9372005463,31.1553993225,840,PHW,FAPH
Pietersburg Municipal Airport,Polokwane,South Africa,-23.9260997772,29.484399795500003,841,\N,FAPI
Port St Johns Airport,Port Saint Johns,South Africa,-31.605899810791016,29.51980018615723,842,JOH,FAPJ
Pietermaritzburg Airport,Pietermaritzburg,South Africa,-29.6490001678,30.3987007141,843,PZB,FAPM
Pilanesberg International Airport,Pilanesberg,South Africa,-25.3337993622,27.173400878900004,844,NTY,FAPN
Polokwane International Airport,Potgietersrus,South Africa,-23.845269,29.458615,845,PTG,FAPP
Potchefstroom Airport,Potchefstroom,South Africa,-26.670999527,27.0818996429,846,PCF,FAPS
Parys Airport,Parys,South Africa,-26.889299392700195,27.503400802612305,847,\N,FAPY
Queenstown Airport,Queenstown,South Africa,-31.92020034790039,26.88220024108887,848,UTW,FAQT
Richards Bay Airport,Richard's Bay,South Africa,-28.740999221800003,32.0920982361,849,RCB,FARB
Rustenburg Airport,Rustenburg,South Africa,-25.6443004608,27.2710990906,850,\N,FARG
Robertson Airport,Robertson,South Africa,-33.812198638916016,19.90279960632324,851,ROD,FARS
Springbok Airport,Springbok,South Africa,-29.68930053710937,17.939599990844727,852,SBU,FASB
Secunda Airport,Secunda,South Africa,-26.52409935,29.1700992584,853,ZEC,FASC
Saldanha /Vredenburg Airport,Saldanha,South Africa,-32.964099884,17.9692993164,854,\N,FASD
Springs Airfield,Springs,South Africa,-26.2494004736,28.398271560700003,855,\N,FASI
Swartkop Air Force Base,Swartkop,South Africa,-25.8097000122,28.1646003723,856,\N,FASK
Sishen Airport,Sishen,South Africa,-27.6485996246,22.9993000031,857,SIS,FASS
Hendrik Swellengrebel Airport,Swellendam,South Africa,-34.04819869995117,20.47459983825684,858,\N,FASX
Skukuza Airport,Skukuza,South Africa,-24.960899353,31.5886993408,859,SZK,FASZ
Tommys Field Airport,Tommy's Field,South Africa,-28.26000022888184,22.993200302124023,860,\N,FATF
New Tempe Airport,Bloemfontein,South Africa,-29.032899856567383,26.15760040283203,861,\N,FATP
Tutuka Power Station Airport,Tutuka,South Africa,-26.776599884,29.3388004303,862,\N,FATT
Tzaneen Airport,Tzaneen,South Africa,-23.8243999481,30.3292999268,863,LTA,FATZ
Prince Mangosuthu Buthelezi Airport,Ulundi,South Africa,-28.3206005096,31.4165000916,864,ULD,FAUL
Pierre Van Ryneveld Airport,Upington,South Africa,-28.39909935,21.2602005005,865,UTN,FAUP
K. D. Matanzima Airport,Umtata,South Africa,-31.5463631849,28.6733551025,866,UTT,FAUT
Vryburg Airport,Vryburg,South Africa,-26.9824008942,24.7287998199,867,VRU,FAVB
Virginia Airport,Durban,South Africa,-29.77059936523437,31.05839920043945,868,VIR,FAVG
Vredendal Airport,Vredendal,South Africa,-31.641000747680664,18.5447998046875,869,VRE,FAVR
Vereeniging Airport,Vereeniging,South Africa,-26.566400528000003,27.9608001709,870,\N,FAVV
Wonderboom Airport,Pretoria,South Africa,-25.6539,28.224199,871,PRY,FAWB
Witbank Airport,Witbank,South Africa,-25.8323001862,29.1919994354,872,\N,FAWI
Waterkloof Air Force Base,Waterkloof,South Africa,-25.8299999237,28.2224998474,873,WKF,FAWK
Welkom Airport,Welkom,South Africa,-27.9968245111,26.6633338928,874,\N,FAWM
Ysterplaat Air Force Base,Ysterplaat,South Africa,-33.90019989013672,18.498300552368164,875,\N,FAYP
Zeerust Airport,Zeerust,South Africa,-25.59900093078613,26.042299270629886,876,\N,FAZR
Francistown Airport,Francistown,Botswana,-21.15959930419922,27.47450065612793,877,FRW,FBFT
Jwaneng Airport,Jwaneng,Botswana,-24.6023006439209,24.69099998474121,878,JWA,FBJW
Kasane Airport,Kasane,Botswana,-17.83289909362793,25.16239929199219,879,BBK,FBKE
Maun Airport,Maun,Botswana,-19.97260093688965,23.43110084533692,880,MUB,FBMN
Sir Seretse Khama International Airport,Gaberone,Botswana,-24.555201,25.9182,881,GBE,FBSK
Selebi Phikwe Airport,Selebi-phikwe,Botswana,-22.0583,27.8288,882,PKW,FBSP
Maya-Maya Airport,Brazzaville,Congo (Brazzaville),-4.251699924468993,15.253000259399414,883,BZV,FCBB
Owando Airport,Owando,Congo (Kinshasa),-0.5313500165939331,15.95009994506836,884,FTX,FCOO
Ouesso Airport,Ouesso,Congo (Kinshasa),1.6159900426899998,16.0379009247,885,OUE,FCOU
Pointe Noire Airport,Pointe-noire,Congo (Brazzaville),-4.816030025482178,11.88659954071045,886,PNR,FCPP
Matsapha Airport,Manzini,Swaziland,-26.52899932861328,31.3075008392334,887,MTS,FDMS
Bangui M'Poko International Airport,Bangui,Central African Republic,4.39847993850708,18.51880073547364,888,BGF,FEFF
Berbérati Airport,Berberati,Central African Republic,4.221580028533936,15.786399841308596,889,BBT,FEFT
Bata Airport,Bata,Equatorial Guinea,1.9054700136184688,9.80568027496338,890,BSG,FGBT
Malabo Airport,Malabo,Equatorial Guinea,3.755270004272461,8.708720207214355,891,SSG,FGSL
RAF Ascension Island,Wide Awake,Saint Helena,-7.9696,-14.3937,892,ASI,FHAW
Sir Seewoosagur Ramgoolam International Airport,Plaisance,Mauritius,-20.430201,57.683601,893,MRU,FIMP
Sir Charles Gaetan Duval Airport,Rodriguez Island,Mauritius,-19.7577,63.361,894,RRG,FIMR
Diego Garcia Naval Support Facility,Diego Garcia Island,British Indian Ocean Territory,-7.313269999999999,72.411102,895,NKW,FJDG
Tiko Airport,Tiko,Cameroon,4.08919000626,9.3605298996,896,TKC,FKKC
Douala International Airport,Douala,Cameroon,4.0060801506,9.71947956085,897,DLA,FKKD
Salak Airport,Maroua,Cameroon,10.45139980316162,14.257399559020994,898,MVR,FKKL
Foumban Nkounja Airport,Foumban,Cameroon,5.636919975280763,10.750800132751465,899,FOM,FKKM
N'Gaoundéré Airport,N'gaoundere,Cameroon,7.357009887695312,13.559200286865234,900,NGE,FKKN
Garoua International Airport,Garoua,Cameroon,9.33588981628418,13.370100021362305,901,GOU,FKKR
Bafoussam Airport,Bafoussam,Cameroon,5.536920070650001,10.3545999527,902,BFX,FKKU
Bamenda Airport,Bamenda,Cameroon,6.0392398834228525,10.122599601745604,903,BPC,FKKV
Yaoundé Airport,Yaounde,Cameroon,3.8360400199890137,11.523500442504885,904,YAO,FKKY
Kasompe Airport,Kasompe,Zambia,-12.572799682617,27.893899917603,905,CGJ,FLKE
Livingstone Airport,Livingstone,Zambia,-17.821800231933594,25.82270050048828,906,LVI,FLLI
Kenneth Kaunda International Airport Lusaka,Lusaka,Zambia,-15.3308000565,28.4526004791,907,LUN,FLLS
Mfuwe Airport,Mfuwe,Zambia,-13.258899688720703,31.93659973144531,908,MFU,FLMF
Mongu Airport,Mongu,Zambia,-15.25450038909912,23.16230010986328,909,MNR,FLMG
Simon Mwansa Kapwepwe International Airport,Ndola,Zambia,-12.998100280762,28.66489982605,910,NLA,FLND
Southdowns Airport,Southdowns,Zambia,-12.900500297546388,28.14990043640137,911,KIW,FLSO
Prince Said Ibrahim International Airport,Moroni,Comoros,-11.5337,43.2719,912,HAH,FMCH
Mohéli Bandar Es Eslam Airport,Moheli,Comoros,-12.298100471496582,43.76639938354492,913,NWA,FMCI
Ouani Airport,Anjouan,Comoros,-12.131699562072756,44.43030166625977,914,AJN,FMCV
Dzaoudzi Pamandzi International Airport,Dzaoudzi,Mayotte,-12.804699897766112,45.28110122680664,915,DZA,FMCZ
Roland Garros Airport,St.-denis,Reunion,-20.88710021972656,55.51029968261719,916,RUN,FMEE
Pierrefonds Airport,St.-pierre,Reunion,-21.320899963378903,55.42499923706055,917,ZSE,FMEP
Ivato Airport,Antananarivo,Madagascar,-18.7969,47.478802,918,TNR,FMMI
Miandrivazo Airport,Miandrivazo,Madagascar,-19.56279945373535,45.45080184936523,919,ZVA,FMMN
Sainte Marie Airport,Sainte Marie,Madagascar,-17.093900680541992,49.81579971313477,920,SMS,FMMS
Toamasina Airport,Toamasina,Madagascar,-18.10950088500977,49.39250183105469,921,TMM,FMMT
Morondava Airport,Morondava,Madagascar,-20.28470039367676,44.31760025024414,922,MOQ,FMMV
Arrachart Airport,Antsiranana,Madagascar,-12.34939956665039,49.29169845581055,923,DIE,FMNA
Mananara Nord Airport,Mananara,Madagascar,-16.16390037536621,49.77379989624024,924,WMR,FMNC
Andapa Airport,Andapa,Madagascar,-14.651700019836426,49.62060165405274,925,ZWA,FMND
Ambilobe Airport,Ambilobe,Madagascar,-13.188400268554688,48.98799896240234,926,AMB,FMNE
Antsirabato Airport,Antalaha,Madagascar,-14.99940013885498,50.3202018737793,927,ANM,FMNH
Analalava Airport,Analalava,Madagascar,-14.62969970703125,47.76380157470703,928,HVA,FMNL
Amborovy Airport,Mahajanga,Madagascar,-15.6668417421,46.3512325287,929,MJN,FMNM
Fascene Airport,Nosy-be,Madagascar,-13.3121004105,48.3148002625,930,NOS,FMNN
Besalampy Airport,Besalampy,Madagascar,-16.744530296500002,44.4824838638,931,BPY,FMNQ
Maroantsetra Airport,Maroantsetra,Madagascar,-15.436699867248535,49.68830108642578,932,WMN,FMNR
Sambava Airport,Sambava,Madagascar,-14.278599739074709,50.17470169067383,933,SVB,FMNS
Vohimarina Airport,Vohemar,Madagascar,-13.375800132751465,50.00279998779297,934,VOH,FMNV
Ambalabe Airport,Antsohihy,Madagascar,-14.898799896240234,47.99390029907226,935,WAI,FMNW
Ampampamena Airport,Ampampamena,Madagascar,-13.484816,48.632702,936,IVA,FMNZ
Tôlanaro Airport,Tolagnaro,Madagascar,-25.03809928894043,46.95610046386719,937,FTU,FMSD
Fianarantsoa Airport,Fianarantsoa,Madagascar,-21.441600799560547,47.11169815063477,938,WFI,FMSF
Farafangana Airport,Farafangana,Madagascar,-22.80529975891113,47.82059860229492,939,RVA,FMSG
Manakara Airport,Manakara,Madagascar,-22.11969947814941,48.02170181274414,940,WVK,FMSK
Mananjary Airport,Mananjary,Madagascar,-21.201799392700195,48.35829925537109,941,MNJ,FMSM
Morombe Airport,Morombe,Madagascar,-21.7539005279541,43.3754997253418,942,MXM,FMSR
Toliara Airport,Toliara,Madagascar,-23.383399963378903,43.72850036621094,943,TLE,FMST
Mbanza Congo Airport,M'banza-congo,Angola,-6.269899845123291,14.246999740600586,944,SSY,FNBC
Benguela Airport,Benguela,Angola,-12.609000206,13.4036998749,945,BUG,FNBG
Cabinda Airport,Cabinda,Angola,-5.59699010848999,12.188400268554688,946,CAB,FNCA
Nova Lisboa Airport,Huambo,Angola,-12.808899879455565,15.760499954223633,948,NOV,FNHU
Kuito Airport,Kuito,Angola,-12.404600143433,16.947399139404,949,SVP,FNKU
Lobito Airport,Lobito,Angola,-12.37119960784912,13.53660011291504,950,\N,FNLB
Quatro de Fevereiro Airport,Luanda,Angola,-8.858369999999999,13.2312,951,LAD,FNLU
Malanje Airport,Malanje,Angola,-9.525090217590332,16.312400817871097,952,MEG,FNMA
Menongue Airport,Menongue,Angola,-14.657600402832031,17.71980094909668,953,SPP,FNME
Negage Airport,Negage,Angola,-7.754509925842285,15.287699699401855,955,GXG,FNNG
Porto Amboim Airport,Porto Amboim,Angola,-10.722000122070312,13.76550006866455,956,PBN,FNPA
Saurimo Airport,Saurimo,Angola,-9.689069747924805,20.431900024414062,957,VHC,FNSA
Soyo Airport,Soyo,Angola,-6.141089916229247,12.371800422668455,958,SZA,FNSO
Lubango Airport,Lubango,Angola,-14.924699783325195,13.574999809265137,959,SDD,FNUB
Luena Airport,Luena,Angola,-11.768099784851074,19.8976993560791,960,LUO,FNUE
Uige Airport,Uige,Angola,-7.60306978225708,15.027799606323242,961,UGO,FNUG
Xangongo Airport,Xangongo,Angola,-16.755399703979492,14.965299606323242,962,XGN,FNXA
Oyem Airport,Oyem,Gabon,1.5431100130081177,11.58139991760254,963,OYE,FOGO
Okondja Airport,Okondja,Gabon,-0.6652140021324158,13.673100471496582,964,OKN,FOGQ
Lambarene Airport,Lambarene,Gabon,-0.7043889760971069,10.245699882507324,965,LBQ,FOGR
Bitam Airport,Bitam,Gabon,2.0756399631500244,11.493200302124023,966,BMM,FOOB
Port Gentil Airport,Port Gentil,Gabon,-0.7117390036582947,8.754380226135254,967,POG,FOOG
Omboue Hopital Airport,Omboue Hospial,Gabon,-1.5747300386428833,9.262689590454102,968,OMB,FOOH
Makokou Airport,Makokou,Gabon,0.5792109966278076,12.890899658203123,969,MKU,FOOK
Libreville Leon M'ba International Airport,Libreville,Gabon,0.4586000144479999,9.4122800827,970,LBV,FOOL
M'Vengue El Hadj Omar Bongo Ondimba International Airport,Franceville,Gabon,-1.6561599969863892,13.437999725341797,971,MVB,FOON
Principe Airport,Principe,Sao Tome and Principe,1.6629400253295898,7.411739826202393,972,PCP,FPPR
São Tomé International Airport,Sao Tome,Sao Tome and Principe,0.3781749904155731,6.712150096893311,973,TMS,FPST
Beira Airport,Beira,Mozambique,-19.79640007019043,34.90760040283203,974,BEW,FQBR
Inhambane Airport,Inhambane,Mozambique,-23.876399993896484,35.40850067138672,976,INH,FQIN
Lichinga Airport,Lichinga,Mozambique,-13.274,35.2663,977,VXC,FQLC
Lumbo Airport,Lumbo,Mozambique,-15.0331001282,40.6716995239,978,LFB,FQLU
Maputo Airport,Maputo,Mozambique,-25.920799,32.572601,979,MPM,FQMA
Mueda Airport,Mueda,Mozambique,-11.672900199890137,39.5630989074707,980,MUD,FQMD
Mocímboa da Praia Airport,Mocimboa Da Praia,Mozambique,-11.36180019378662,40.35490036010742,981,MZB,FQMP
Marrupa Airport,Marrupa,Mozambique,-13.225099563598633,37.55210113525391,982,\N,FQMR
Nacala Airport,Nacala,Mozambique,-14.488200187683104,40.71220016479492,983,MNC,FQNC
Nampula Airport,Nampula,Mozambique,-15.105600357055664,39.28179931640625,984,APL,FQNP
Pemba Airport,Pemba,Mozambique,-12.991762161254885,40.52401351928711,985,POL,FQPB
Quelimane Airport,Quelimane,Mozambique,-17.855499267578125,36.86909866333008,986,UEL,FQQL
Songo Airport,Songo,Mozambique,-15.602700233459473,32.77320098876953,987,\N,FQSG
Chingozi Airport,Tete,Mozambique,-16.104799270629886,33.64020156860352,988,TET,FQTT
Ulongwe Airport,Ulongwe,Mozambique,-14.70460033416748,34.352401733398445,989,\N,FQUG
Vilankulo Airport,Vilankulu,Mozambique,-22.018400192260746,35.31330108642578,990,VNX,FQVL
Alphonse Airport,Alphonse,Seychelles,-7.00478,52.7262,991,\N,FSAL
Desroches Airport,Desroches,Seychelles,-5.6967,53.6558,992,DES,FSDR
Farquhar Airport,Farquhar,Seychelles,-10.1096,51.176102,993,\N,FSFA
Seychelles International Airport,Mahe,Seychelles,-4.67434,55.521801,994,SEZ,FSIA
Praslin Airport,Praslin,Seychelles,-4.3192901611328125,55.69139862060547,995,PRI,FSPP
Coetivy Airport,Coetivy,Seychelles,-7.13457,56.278198,996,\N,FSSC
Abeche Airport,Abeche,Chad,13.847000122070312,20.84429931640625,997,AEH,FTTC
Moundou Airport,Moundou,Chad,8.624409675598145,16.071399688720707,998,MQQ,FTTD
N'Djamena International Airport,N'djamena,Chad,12.1337,15.034,999,NDJ,FTTJ
Faya Largeau Airport,Faya-largeau,Chad,17.91710090637207,19.111099243164062,1000,FYT,FTTY
Joshua Mqabuko Nkomo International Airport,Bulawayo,Zimbabwe,-20.017401,28.617901,1001,BUQ,FVBU
Charles Prince Airport,Harare,Zimbabwe,-17.75160026550293,30.924699783325195,1002,\N,FVCP
Buffalo Range Airport,Chiredzi,Zimbabwe,-21.008101,31.5786,1003,BFO,FVCZ
Victoria Falls International Airport,Victoria Falls,Zimbabwe,-18.09589958190918,25.839000701904297,1004,VFA,FVFA
Robert Gabriel Mugabe International Airport,Harare,Zimbabwe,-17.931801,31.0928,1005,HRE,FVHA
Kariba International Airport,Kariba,Zimbabwe,-16.519800186157227,28.88500022888184,1006,KAB,FVKB
Mutoko Airport,Mutoko,Zimbabwe,-17.431900024414062,32.18450164794922,1007,\N,FVMT
Mutare Airport,Mutare,Zimbabwe,-18.997499465942,32.627201080322,1008,UTA,FVMU
Masvingo International Airport,Masvingo,Zimbabwe,-20.055299758911133,30.859100341796875,1009,MVZ,FVMV
Zvishavane Airport,Zvishavane,Zimbabwe,-20.28949928283692,30.08819961547852,1010,\N,FVSH
Thornhill Air Base,Gwert,Zimbabwe,-19.436399459838867,29.861900329589844,1011,GWE,FVTL
Hwange National Park Airport,Hwange National Park,Zimbabwe,-18.62989997863769,27.020999908447266,1012,HWN,FVWN
Chileka International Airport,Blantyre,Malawi,-15.679100036621096,34.9739990234375,1013,BLZ,FWCL
Karonga Airport,Karonga,Malawi,-9.953570365905762,33.893001556396484,1014,KGJ,FWKA
Kasungu Airport,Kasungu,Malawi,-13.014599800109863,33.46860122680664,1015,KBQ,FWKG
Lilongwe International Airport,Lilongwe,Malawi,-13.7894001007,33.78099823,1016,LLW,FWKI
Mzuzu Airport,Mzuzu,Malawi,-11.444700241088867,34.01179885864258,1017,ZZU,FWUU
Moshoeshoe I International Airport,Maseru,Lesotho,-29.462299346923828,27.552499771118164,1018,MSU,FXMM
Mejametalana Airbase,Maseru,Lesotho,-29.30410003662109,27.50349998474121,1019,\N,FXMU
Ndjili International Airport,Kinshasa,Congo (Kinshasa),-4.38575,15.4446,1020,FIH,FZAA
Ndolo Airport,Kinshasa,Congo (Kinshasa),-4.32666015625,15.327500343323,1021,NLO,FZAB
Muanda Airport,Muanda,Congo (Kinshasa),-5.9308600425720215,12.351799964904783,1022,MNB,FZAG
Kitona Base Airport,Kitona Base,Congo (Kinshasa),-5.918059825897218,12.447699546813965,1023,\N,FZAI
Bandundu Airport,Bandoundu,Congo (Kinshasa),-3.3113200664520264,17.38170051574707,1024,FDU,FZBO
Kikwit Airport,Kikwit,Congo (Kinshasa),-5.035769939422607,18.785600662231445,1025,KKW,FZCA
Mbandaka Airport,Mbandaka,Congo (Kinshasa),0.0226000007242,18.2887001038,1026,MDK,FZEA
Gbadolite Airport,Gbadolite,Congo (Kinshasa),4.253210067749023,20.97529983520508,1027,BDT,FZFD
Gemena Airport,Gemena,Congo (Kinshasa),3.23536992073,19.7712993622,1028,GMA,FZFK
Kotakoli Airport,Kotakoli,Congo (Kinshasa),4.157639980316162,21.65089988708496,1029,KLI,FZFP
Lisala Airport,Lisala,Congo (Kinshasa),2.17066,21.496901,1030,LIQ,FZGA
Bangoka International Airport,Kisangani,Congo (Kinshasa),0.4816389977929999,25.3379993439,1031,FKI,FZIC
Matari Airport,Isiro,Congo (Kinshasa),2.8276100158691406,27.58830070495605,1032,IRP,FZJH
Bunia Airport,Bunia,Congo (Kinshasa),1.5657199621200562,30.22080039978028,1033,BUX,FZKA
Buta Zega Airport,Buta Zega,Congo (Kinshasa),2.818350076675415,24.79369926452637,1034,BZU,FZKJ
Bukavu Kavumu Airport,Bukavu/kavumu,Congo (Kinshasa),-2.3089799880981445,28.808799743652344,1035,BKY,FZMA
Goma International Airport,Goma,Congo (Kinshasa),-1.670809984207153,29.23850059509277,1036,GOM,FZNA
Kindu Airport,Kindu,Congo (Kinshasa),-2.91917991638,25.9153995514,1037,KND,FZOA
Lubumbashi International Airport,Lubumashi,Congo (Kinshasa),-11.5913000107,27.5308990479,1038,FBM,FZQA
Kolwezi Airport,Kolwezi,Congo (Kinshasa),-10.765899658203123,25.505699157714844,1039,KWZ,FZQM
Kalemie Airport,Kalemie,Congo (Kinshasa),-5.8755598068237305,29.25,1040,FMI,FZRF
Kamina Base Airport,Kamina Base,Congo (Kinshasa),-8.642020225524902,25.252899169921875,1041,KMN,FZSA
Kananga Airport,Kananga,Congo (Kinshasa),-5.90005016327,22.4692001343,1042,KGA,FZUA
Mbuji Mayi Airport,Mbuji-mayi,Congo (Kinshasa),-6.121240139010001,23.5690002441,1043,MJM,FZWA
Modibo Keita International Airport,Bamako,Mali,12.5335,-7.94994,1044,BKO,GABS
Gao Airport,Gao,Mali,16.24839973449707,-0.0054560001008212,1045,GAQ,GAGO
Kayes Dag Dag Airport,Kayes,Mali,14.481200218200684,-11.404399871826172,1046,KYS,GAKY
Mopti Airport,Mopti,Mali,14.5128002167,-4.07955980301,1047,MZI,GAMB
Timbuktu Airport,Tombouctou,Mali,16.730499267578125,-3.0075800418853764,1048,TOM,GATB
Tessalit Airport,Tessalit,Mali,20.24300003051757,0.9773079752922058,1049,\N,GATS
Banjul International Airport,Banjul,Gambia,13.338000297546388,-16.65220069885254,1050,BJL,GBYD
Fuerteventura Airport,Fuerteventura,Spain,28.452699661254886,-13.863800048828123,1051,FUE,GCFV
Hierro Airport,Hierro,Spain,27.81480026245117,-17.887100219726562,1052,VDE,GCHI
La Palma Airport,Santa Cruz De La Palma,Spain,28.626499,-17.7556,1053,SPC,GCLA
Gran Canaria Airport,Gran Canaria,Spain,27.931900024414062,-15.38659954071045,1054,LPA,GCLP
Lanzarote Airport,Arrecife,Spain,28.945499,-13.6052,1055,ACE,GCRR
Tenerife South Airport,Tenerife,Spain,28.044500351,-16.5725002289,1056,TFS,GCTS
Tenerife Norte Airport,Tenerife,Spain,28.4827003479,-16.341499328599998,1057,TFN,GCXO
Melilla Airport,Melilla,Spain,35.279800415,-2.9562599659,1058,MLN,GEML
Lungi International Airport,Freetown,Sierra Leone,8.616439999999999,-13.1955,1059,FNA,GFLL
Cufar Airport,Cufar,Guinea-Bissau,11.2878999710083,-15.180500030517578,1060,\N,GGCF
Spriggs Payne Airport,Monrovia,Liberia,6.289060115814209,-10.758700370788574,1062,MLW,GLMR
Roberts International Airport,Monrovia,Liberia,6.23379,-10.3623,1063,ROB,GLRB
Al Massira Airport,Agadir,Morocco,30.32500076293945,-9.41306972503662,1064,AGA,GMAD
Tan Tan Airport,Tan Tan,Morocco,28.44820022583008,-11.161299705505373,1065,TTA,GMAT
Saïss Airport,Fes,Morocco,33.927299499499995,-4.977960109709999,1066,FEZ,GMFF
Ifrane Airport,Ifrane,Morocco,33.505298614501946,-5.152900218963623,1067,\N,GMFI
Moulay Ali Cherif Airport,Er-rachidia,Morocco,31.9475002289,-4.39833021164,1068,ERH,GMFK
Bassatine Airport,Meknes,Morocco,33.879100799560554,-5.515120029449463,1069,MEK,GMFM
Angads Airport,Oujda,Morocco,34.78720092773437,-1.92399001121521,1070,OUD,GMFO
Ben Slimane Airport,Ben Slimane,Morocco,33.655399,-7.22145,1071,GMD,GMMB
Rabat-Salé Airport,Rabat,Morocco,34.051497999999995,-6.751519999999999,1072,RBA,GMME
Mohammed V International Airport,Casablanca,Morocco,33.36750030517578,-7.589970111846924,1074,CMN,GMMN
Menara Airport,Marrakech,Morocco,31.6068992615,-8.036299705510002,1075,RAK,GMMX
Kenitra Airport,Kentira,Morocco,34.298900604248054,-6.5958800315856925,1076,NNA,GMMY
Ouarzazate Airport,Ouarzazate,Morocco,30.9391002655,-6.909430027010001,1077,OZZ,GMMZ
Cherif Al Idrissi Airport,Al Hociema,Morocco,35.177101135253906,-3.83951997756958,1078,AHU,GMTA
Saniat R'mel Airport,Tetouan,Morocco,35.594299316406,-5.320020198822,1079,TTU,GMTN
Ibn Batouta Airport,Tanger,Morocco,35.726898193400004,-5.916890144349999,1080,TNG,GMTT
Ziguinchor Airport,Ziguinchor,Senegal,12.5556,-16.281799,1081,ZIG,GOGG
Cap Skirring Airport,Cap Skiring,Senegal,12.39533,-16.748,1082,CSK,GOGS
Kaolack Airport,Kaolack,Senegal,14.146900177001951,-16.051300048828125,1083,KLC,GOOK
Léopold Sédar Senghor International Airport,Dakar,Senegal,14.739700317382812,-17.49020004272461,1084,DKR,GOOY
Saint Louis Airport,St. Louis,Senegal,16.050800323486328,-16.463199615478516,1085,XLS,GOSS
Bakel Airport,Bakel,Senegal,14.847299575805664,-12.468299865722654,1086,BXE,GOTB
Kédougou Airport,Kedougou,Senegal,12.57229995727539,-12.22029972076416,1087,KGG,GOTK
Tambacounda Airport,Tambacounda,Senegal,13.73680019378662,-13.65310001373291,1088,TUD,GOTT
Aioun el Atrouss Airport,Aioun El Atrouss,Mauritania,16.711299896240234,-9.637880325317385,1089,AEO,GQNA
Tidjikja Airport,Tidjikja,Mauritania,18.57010078430176,-11.423500061035154,1090,TIY,GQND
Kiffa Airport,Kiffa,Mauritania,16.59000015258789,-11.406200408935549,1091,KFA,GQNF
Néma Airport,Nema,Mauritania,16.621999740600586,-7.3165998458862305,1092,EMN,GQNI
Kaédi Airport,Kaedi,Mauritania,16.159500122070312,-13.50759983062744,1093,KED,GQNK
Nouakchott–Oumtounsy International Airport,Nouakschott,Mauritania,18.31,-15.969722199999998,1094,NKC,GQNO
Sélibaby Airport,Selibabi,Mauritania,15.179699897766112,-12.207300186157228,1095,SEY,GQNS
Atar International Airport,Atar,Mauritania,20.506799697875977,-13.04319953918457,1096,ATR,GQPA
Nouadhibou International Airport,Nouadhibou,Mauritania,20.9330997467041,-17.030000686645508,1097,NDB,GQPP
Bir Moghrein Airport,Bir Moghrein,Mauritania,25.2367000579834,-11.588700294494627,1098,\N,GQPT
Fria Airport,Fira,Guinea,10.350600242615,-13.569199562073,1099,FIG,GUFA
Faranah Airport,Faranah,Guinea,10.0354995728,-10.7698001862,1100,FAA,GUFH
Tata Airport,Labe,Guinea,11.326100349426,-12.286800384521,1101,LEK,GULB
Amílcar Cabral International Airport,Amilcar Cabral,Cape Verde,16.7414,-22.9494,1102,SID,GVAC
Rabil Airport,Boa Vista,Cape Verde,16.136499404907227,-22.88890075683593,1103,BVC,GVBA
Maio Airport,Maio,Cape Verde,15.15590000152588,-23.21369934082031,1104,MMO,GVMA
Preguiça Airport,Sao Nocolau Island,Cape Verde,16.58839988708496,-24.28470039367676,1105,SNE,GVSN
São Pedro Airport,Sao Vicente Island,Cape Verde,16.833200454711914,-25.05529975891113,1106,VXE,GVSV
Addis Ababa Bole International Airport,Addis Ababa,Ethiopia,8.97789001465,38.7993011475,1107,ADD,HAAB
Lideta Army Airport,Addis Ababa,Ethiopia,9.003685,38.725498,1108,\N,HAAL
Arba Minch Airport,Arba Minch,Ethiopia,6.0393900871276855,37.59049987792969,1109,AMH,HAAM
Axum Airport,Axum,Ethiopia,14.14680004119873,38.77280044555664,1110,AXU,HAAX
Bahir Dar Airport,Bahar Dar,Ethiopia,11.608099937438965,37.32160186767578,1111,BJR,HABD
Aba Tenna Dejazmach Yilma International Airport,Dire Dawa,Ethiopia,9.624699592590332,41.85419845581055,1112,DIR,HADR
Gambella Airport,Gambella,Ethiopia,8.12876033782959,34.563098907470696,1113,GMB,HAGM
Gonder Airport,Gondar,Ethiopia,12.51990032196045,37.43399810791016,1114,GDQ,HAGN
Jimma Airport,Jimma,Ethiopia,7.66609001159668,36.81660079956055,1116,JIM,HAJM
Lalibella Airport,Lalibella,Ethiopia,11.975000381469728,38.97999954223633,1117,LLI,HALL
Mekele Airport,Makale,Ethiopia,13.467399597167969,39.53350067138672,1118,MQX,HAMK
Asosa Airport,Asosa,Ethiopia,10.018500328063965,34.586299896240234,1119,ASO,HASO
Bujumbura International Airport,Bujumbura,Burundi,-3.3240199089050293,29.318500518798828,1120,BJM,HBBA
Egal International Airport,Hargeisa,Somalia,9.518170356750488,44.08879852294922,1121,HGA,HCMH
Berbera Airport,Berbera,Somalia,10.389200210571287,44.94110107421875,1122,BBO,HCMI
Kisimayu Airport,Kismayu,Somalia,-0.3773530125617981,42.45920181274414,1123,KMU,HCMK
El Nouzha Airport,Alexandria,Egypt,31.183900833129886,29.94890022277832,1126,ALY,HEAX
Abu Simbel Airport,Abu Simbel,Egypt,22.3759994507,31.611700058,1127,ABS,HEBL
Cairo International Airport,Cairo,Egypt,30.12190055847168,31.40559959411621,1128,CAI,HECA
Cairo West Airport,Cairo,Egypt,30.116399765,30.9153995514,1129,CWE,HECW
Hurghada International Airport,Hurghada,Egypt,27.178300857543945,33.799400329589844,1130,HRG,HEGN
El Gora Airport,El Gorah,Egypt,31.068559000000004,34.129629,1131,EGH,HEGR
Luxor International Airport,Luxor,Egypt,25.671,32.7066,1132,LXR,HELX
Mersa Matruh Airport,Mersa-matruh,Egypt,31.3253993988,27.2217006683,1133,MUH,HEMM
Port Said Airport,Port Said,Egypt,31.27939987182617,32.240001678466804,1134,PSD,HEPS
St Catherine International Airport,St. Catherine,Egypt,28.685300827,34.0625,1135,SKV,HESC
Aswan International Airport,Aswan,Egypt,23.964399337800003,32.8199996948,1136,ASW,HESN
El Tor Airport,El-tor,Egypt,28.208999633789062,33.64550018310547,1137,ELT,HETR
Eldoret International Airport,Eldoret,Kenya,0.4044579863548279,35.23889923095703,1138,EDL,HKEL
Kakamega Airport,Kakamega,Kenya,0.271342009306,34.787300109899995,1139,GGM,HKKG
Kisumu Airport,Kisumu,Kenya,-0.0861390009522438,34.72890090942383,1140,KIS,HKKI
Kitale Airport,Kitale,Kenya,0.9719889760017396,34.95859909057617,1141,KTL,HKKT
Lodwar Airport,Lodwar,Kenya,3.1219699382781982,35.608699798583984,1143,LOK,HKLO
Manda Airstrip,Lamu,Kenya,-2.252419948577881,40.91310119628906,1144,LAU,HKLU
Mombasa Moi International Airport,Mombasa,Kenya,-4.034830093383788,39.594200134277344,1145,MBA,HKMO
Naivasha Airport,Naivasha,Kenya,-0.787953,36.433494,1146,\N,HKNV
Nairobi Wilson Airport,Nairobi,Kenya,-1.321720004081726,36.81480026245117,1147,WIL,HKNW
Moi Air Base,Nairobi,Kenya,-1.27726995945,36.8623008728,1148,\N,HKRE
Wajir Airport,Wajir,Kenya,1.73324,40.091599,1149,WJR,HKWJ
Bu Attifel Airport,Buattifel,Libya,28.79540061950684,22.080900192260746,1150,\N,HLFL
Warehouse 59e Airport,Giallo,Libya,28.63850021362305,21.4379997253418,1151,\N,HLGL
Ghat Airport,Ghat,Libya,25.1455993652,10.1426000595,1152,GHT,HLGT
Kufra Airport,Kufra,Libya,24.178699493408203,23.31399917602539,1153,AKF,HLKF
Benina International Airport,Benghazi,Libya,32.096801757799994,20.2695007324,1154,BEN,HLLB
Sabha Airport,Sebha,Libya,26.98699951171875,14.47249984741211,1156,SEB,HLLS
Tripoli International Airport,Tripoli,Libya,32.6635017395,13.159000396700002,1157,TIP,HLLT
Marsa Brega Airport,Marsa Brega,Libya,30.37809944152832,19.57640075683593,1158,LMQ,HLMB
Ras Lanuf Oil Airport,Ras Lanouf V 40,Libya,30.5,18.52720069885254,1159,\N,HLNF
Hon Airport,Hon,Libya,29.11009979248047,15.96560001373291,1160,HUQ,HLON
Dahra Airport,Dahra,Libya,29.47260093688965,17.934900283813477,1161,\N,HLRA
Ghadames East Airport,Ghadames,Libya,30.15169906616211,9.715310096740724,1162,LTD,HLTD
Zella 74 Airport,Zella 74,Libya,28.58989906311035,17.293899536132812,1163,\N,HLZA
Gisenyi Airport,Gisenyi,Rwanda,-1.6771999597549438,29.258899688720703,1164,GYI,HRYG
Kigali International Airport,Kigali,Rwanda,-1.96863,30.1395,1165,KGL,HRYR
Kamembe Airport,Kamembe,Rwanda,-2.462239980697632,28.907899856567383,1166,KME,HRZA
Dongola Airport,Dongola,Sudan,19.1539001465,30.4300994873,1167,DOG,HSDN
Damazin Airport,Damazin,Sudan,11.7859,34.3367,1168,RSS,HSDZ
El Fasher Airport,El Fasher,Sudan,13.61489963531494,25.32460021972656,1169,ELF,HSFS
Kassala Airport,Kassala,Sudan,15.387499809265137,36.328800201416016,1170,KSL,HSKA
Kadugli Airport,Kadugli,Sudan,11.137999534600002,29.7010993958,1171,KDX,HSLI
El Obeid Airport,El Obeid,Sudan,13.153200149536133,30.23270034790039,1172,EBD,HSOB
Juba International Airport,Juba,South Sudan,4.87201023102,31.6011009216,1173,JUB,HSSJ
Malakal Airport,Malakal,Sudan,9.55897045135498,31.65220069885254,1174,MAK,HSSM
Khartoum International Airport,Khartoum,Sudan,15.589500427246096,32.55319976806641,1175,KRT,HSSS
Arusha Airport,Arusha,Tanzania,-3.3677899837493896,36.63330078125,1176,ARK,HTAR
Julius Nyerere International Airport,Dar Es Salaam,Tanzania,-6.87811,39.202599,1177,DAR,HTDA
Dodoma Airport,Dodoma,Tanzania,-6.170440196990968,35.75260162353516,1178,DOD,HTDO
Iringa Airport,Iringa,Tanzania,-7.668630123138428,35.75210189819336,1179,IRI,HTIR
Kilimanjaro International Airport,Kilimanjaro,Tanzania,-3.42940998077,37.0745010376,1180,JRO,HTKJ
Lake Manyara Airport,Lake Manyara,Tanzania,-3.376310110092163,35.81829833984375,1181,LKY,HTLM
Mtwara Airport,Mtwara,Tanzania,-10.339099884033203,40.18180084228516,1182,MYW,HTMT
Mwanza Airport,Mwanza,Tanzania,-2.4444899559021,32.932701110839844,1183,MWZ,HTMW
Pemba Airport,Pemba,Tanzania,-5.257259845733644,39.8114013671875,1184,PMA,HTPE
Tanga Airport,Tanga,Tanzania,-5.092360019683838,39.07120132446289,1185,TGT,HTTG
Abeid Amani Karume International Airport,Zanzibar,Tanzania,-6.22202,39.224899,1186,ZNZ,HTZA
Entebbe International Airport,Entebbe,Uganda,0.042386,32.443501,1187,EBB,HUEN
Soroti Airport,Soroti,Uganda,1.7276899814605713,33.62279891967773,1189,SRT,HUSO
Tirana International Airport Mother Teresa,Tirana,Albania,41.4146995544,19.7206001282,1190,TIA,LATI
Burgas Airport,Bourgas,Bulgaria,42.56959915161133,27.515199661254886,1191,BOJ,LBBG
Gorna Oryahovitsa Airport,Gorna Orechovica,Bulgaria,43.15140151977539,25.712900161743164,1192,GOZ,LBGO
Plovdiv International Airport,Plovdiv,Bulgaria,42.067799,24.8508,1193,PDV,LBPD
Sofia Airport,Sofia,Bulgaria,42.69669342041016,23.411436080932617,1194,SOF,LBSF
Stara Zagora Airport,Stara Zagora,Bulgaria,42.3766667,25.655,1195,SZR,LBSZ
Varna Airport,Varna,Bulgaria,43.232101,27.8251,1196,VAR,LBWN
Larnaca International Airport,Larnaca,Cyprus,34.875099182128906,33.62490081787109,1197,LCA,LCLK
Paphos International Airport,Paphos,Cyprus,34.71799850463867,32.48569869995117,1198,PFO,LCPH
RAF Akrotiri,Akrotiri,Cyprus,34.590401,32.9879,1199,AKT,LCRA
Dubrovnik Airport,Dubrovnik,Croatia,42.5614013671875,18.268199920654297,1200,DBV,LDDU
Osijek-Čepin Airfield,Cepin,Croatia,45.5427778,18.6319444,1201,\N,LDOC
Osijek Airport,Osijek,Croatia,45.46269989013672,18.810199737548828,1202,OSI,LDOS
Pula Airport,Pula,Croatia,44.89350128173828,13.922200202941896,1203,PUY,LDPL
Grobnicko Polje Airport,Grobnik,Croatia,45.37950134277344,14.50380039215088,1204,\N,LDRG
Rijeka Airport,Rijeka,Croatia,45.21689987182617,14.570300102233888,1205,RJK,LDRI
Split Airport,Split,Croatia,43.53889846801758,16.29800033569336,1206,SPU,LDSP
Varaždin Airport,Varazdin,Croatia,46.29464721679688,16.382932662963867,1207,\N,LDVA
Zagreb Airport,Zagreb,Croatia,45.742900848400005,16.0687999725,1208,ZAG,LDZA
Zadar Airport,Zadar,Croatia,44.108299,15.3467,1209,ZAD,LDZD
Udbina Air Base,Udbina,Croatia,44.55759811401367,15.774399757385256,1210,\N,LDZU
Albacete-Los Llanos Airport,Albacete,Spain,38.9485015869,-1.86352002621,1211,ABC,LEAB
Alicante International Airport,Alicante,Spain,38.28219985961914,-0.5581560134887695,1212,ALC,LEAL
Almería International Airport,Almeria,Spain,36.84389877319336,-2.3701000213623047,1213,LEI,LEAM
Asturias Airport,Aviles,Spain,43.5635986328125,-6.0346198081970215,1214,OVD,LEAS
Córdoba Airport,Cordoba,Spain,37.84199905395508,-4.848879814147949,1215,ODB,LEBA
